{
  "updated": "2026-06-20T20:41:00Z",
  "model": "claude-sonnet-4-6",
  "lead": "中東では、イランがホルムズ海峡の閉鎖を表明しレバノンへのイスラエル攻撃に対抗姿勢を強める一方、米国とイランはスイスで外交協議を開始する予定であり、緊張と対話が同時進行している。ガザおよびレバノンでは停戦合意後も戦闘が継続し、民間人への被害が続いている。ウクライナ戦線ではザポリージャへのロシア攻撃で死者が出るとともに、ウクライナの無人機攻撃がモスクワ近郊にまで及び、ロシア国内に戦争の影響が波及しつつある。また、オーストラリアでH5N1鳥インフルエンザの初感染例が確認され、ウイルスが全大陸に到達したことが世界的な懸念を呼んでいる。",
  "cards": [
    {
      "title_ja": "イランがホルムズ海峡を閉鎖、世界のエネルギー供給に重大リスク",
      "summary_ja": "イランはレバノンへのイスラエル攻撃への対抗措置としてホルムズ海峡の閉鎖を表明した。世界の石油輸送の要衝であるこの海峡の封鎖は、国際エネルギー市場に深刻な影響を与えうる。",
      "category": "conflict",
      "severity": 5,
      "lat": 26.6,
      "lon": 56.3,
      "place": "ホルムズ海峡",
      "sources": []
    },
    {
      "title_ja": "ガザでイスラエルの空爆が継続、子どもを含む民間人が死亡",
      "summary_ja": "停戦協議が進む中、イスラエルはガザへの空爆を継続し、複数の子どもを含む民間人が殺害された。国際社会からの非難が高まっている。",
      "category": "conflict",
      "severity": 5,
      "lat": 31.5,
      "lon": 34.47,
      "place": "ガザ地区",
      "sources": []
    },
    {
      "title_ja": "レバノンでイスラエル・ヒズボラ衝突が継続、米国発表の停戦も機能せず",
      "summary_ja": "米国が停戦を発表したにもかかわらず、レバノンではイスラエルとヒズボラの戦闘が続いている。イスラエルとヒズボラは激しい衝突後に停戦を更新したが、イランとの交渉にも影響が出ている。",
      "category": "conflict",
      "severity": 5,
      "lat": 33.88,
      "lon": 35.5,
      "place": "レバノン",
      "sources": []
    },
    {
      "title_ja": "米国とイランがスイスで外交協議、核・停戦問題を議論",
      "summary_ja": "パキスタンの発表によると、米国とイランの協議がスイスで日曜日から開始される予定。両国間の緊張緩和に向けた外交的取り組みが進められているが、イランはMOU違反時の「相互的行動」も警告している。",
      "category": "politics",
      "severity": 4,
      "lat": 46.95,
      "lon": 7.45,
      "place": "スイス",
      "sources": []
    },
    {
      "title_ja": "ウクライナ、ザポリージャへのロシア攻撃で5人死亡",
      "summary_ja": "ウクライナはザポリージャ地域へのロシアによる攻撃で5人が殺害されたと発表した。ロシアとウクライナの紛争は依然として継続している。",
      "category": "conflict",
      "severity": 4,
      "lat": 47.84,
      "lon": 35.14,
      "place": "ザポリージャ（ウクライナ）",
      "sources": []
    },
    {
      "title_ja": "ウクライナの無人機がモスクワ近郊の石油精製所を攻撃、戦争がロシア本土に波及",
      "summary_ja": "ウクライナによるモスクワ近郊の石油精製所への無人機攻撃により、ロシア国内での戦争の影響が直接的になってきている。ウクライナの無人機戦略がロシアの防空体制の弱点を露呈させているとの分析もある。",
      "category": "conflict",
      "severity": 4,
      "lat": 55.75,
      "lon": 37.62,
      "place": "モスクワ、ロシア",
      "sources": []
    },
    {
      "title_ja": "オーストラリアでH5N1鳥インフルエンザ初感染例、ウイルスが全大陸に到達",
      "summary_ja": "オーストラリアでH5N1鳥インフルエンザの初めての人間感染例が確認され、ウイルスが世界すべての大陸に広がったことになる。国際的な公衆衛生上の懸念が高まっている。",
      "category": "science",
      "severity": 4,
      "lat": -25.27,
      "lon": 133.78,
      "place": "オーストラリア",
      "sources": []
    },
    {
      "title_ja": "イランの政治派閥、米国との和平合意をめぐり分裂",
      "summary_ja": "イランの保守派とリベラル派が米国との和平合意に対して大きく異なる立場を示している。国内の政治的分断が外交交渉の行方に影響を与える可能性がある。",
      "category": "politics",
      "severity": 3,
      "lat": 35.69,
      "lon": 51.39,
      "place": "イラン",
      "sources": []
    },
    {
      "title_ja": "英国スターマー首相、政治的危機に直面",
      "summary_ja": "英国のキール・スターマー首相が政治的な危機に直面しており、その職務継続が不確実になっている。国内の課題と政治情勢が首相の今後を問う状況を生み出している。",
      "category": "politics",
      "severity": 3,
      "lat": 51.51,
      "lon": -0.13,
      "place": "イギリス（ロンドン）",
      "sources": []
    },
    {
      "title_ja": "カムチャッカ半島近海でM5.8の地震発生",
      "summary_ja": "ロシア・カムチャッカ半島の東南東約140kmを震源とするマグニチュード5.8の地震が発生した。環太平洋地震帯における活発な地震活動の一環である。",
      "category": "disaster",
      "severity": 2,
      "lat": 52.9,
      "lon": 163.5,
      "place": "140 km ESE of Petropavlovsk-Kamchatsky, Russia",
      "sources": []
    }
  ]
}