{
  "updated": "2026-06-20T03:47:24Z",
  "model": "claude-sonnet-4-6",
  "lead": "中東では米国仲介によるイスラエル・ヒズボラ停戦が成立したものの、レバノンへの攻撃報告が続き、米イラン交渉も武力衝突の激化により中断されるなど、地域の緊張は依然として高い。アフリカではコンゴ民主共和国でエボラ出血熱が急速に拡大し70人以上の医療従事者が感染、ニジェールでは空港への武装攻撃で35人が死亡するなど複合的な危機が進行している。欧州ではポーランドとウクライナの歴史問題をめぐる対立が表面化し、ゼレンスキー大統領への勲章剥奪という外交的摩擦に発展した。",
  "cards": [
    {
      "title_ja": "イスラエル・ヒズボラ停戦合意、しかしレバノンへの攻撃継続報告",
      "summary_ja": "米国の仲介によりイスラエルとヒズボラが停戦に合意したが、レバノン国内ではイスラエルによる空爆が引き続き報告されている。停戦の実効性に疑問が呈されており、地域の不安定さが続いている。",
      "category": "conflict",
      "severity": 5,
      "lat": 33.8547,
      "lon": 35.8623,
      "place": "レバノン",
      "sources": []
    },
    {
      "title_ja": "米イラン交渉、イスラエル・ヒズボラ衝突激化で急遽中止",
      "summary_ja": "イスラエルとヒズボラ間の武力衝突の激化により、米国とイランの間で進められていた交渉が急遽中止された。イラン外務次官は「前進する準備がある」と述べており、交渉再開の可能性は残されている。",
      "category": "conflict",
      "severity": 5,
      "lat": 35.6892,
      "lon": 51.389,
      "place": "イラン",
      "sources": []
    },
    {
      "title_ja": "コンゴ民主共和国でエボラ出血熱が急速拡大、医療従事者70人以上感染",
      "summary_ja": "コンゴ民主共和国でエボラ出血熱の感染が急速に広がり、70人以上の医療従事者が感染している。難民キャンプでは30人が死亡しており、劣悪な衛生環境が感染拡大を加速させている。",
      "category": "disaster",
      "severity": 5,
      "lat": -4.0383,
      "lon": 21.7587,
      "place": "コンゴ民主共和国",
      "sources": []
    },
    {
      "title_ja": "ニジェール最大の空港への武装攻撃で35人死亡",
      "summary_ja": "ニジェールの首都ニアメにあるディオリ・ハマニ国際空港が武装勢力による攻撃を受け、35人が殺害された。テロ組織による襲撃と見られており、西アフリカの安全保障情勢の悪化を示している。",
      "category": "conflict",
      "severity": 5,
      "lat": 13.4818,
      "lon": 2.1833,
      "place": "ニジェール・ニアメ",
      "sources": []
    },
    {
      "title_ja": "ガザ停戦中も子ども1日1人が死亡、国連が報告",
      "summary_ja": "国連によると、停戦中にもかかわらずイスラエルのガザへの軍事作戦により平均して1日1人の子どもが殺害されているという。ガザの人道的状況の深刻な悪化が改めて指摘されている。",
      "category": "conflict",
      "severity": 5,
      "lat": 31.3547,
      "lon": 34.3088,
      "place": "ガザ地区",
      "sources": []
    },
    {
      "title_ja": "カムチャッカ半島沖でM6.6の地震発生",
      "summary_ja": "ロシア・ペトロパブロフスク・カムチャツキーの東南東133kmを震源とするマグニチュード6.6の地震が発生した。同地域では同時期にM6.0、M5.8の地震も相次いで観測されている。",
      "category": "disaster",
      "severity": 3,
      "lat": 52.9,
      "lon": 163.1,
      "place": "ロシア・カムチャッカ半島沖",
      "sources": []
    },
    {
      "title_ja": "ポーランド、ゼレンスキー大統領から最高勲章を剥奪",
      "summary_ja": "ポーランドがウクライナのゼレンスキー大統領から同国最高栄誉の勲章を剥奪した。第二次世界大戦時代の歴史問題をめぐる両国間の対立が外交的摩擦として表面化した形となっている。",
      "category": "politics",
      "severity": 3,
      "lat": 52.2297,
      "lon": 21.0122,
      "place": "ポーランド・ワルシャワ",
      "sources": []
    },
    {
      "title_ja": "ジンバブエ議会、大統領の権力保持期間延長法案を可決",
      "summary_ja": "ジンバブエ議会が現職大統領の在任期間を延長することを認める法案を可決した。民主主義的な統治への懸念が高まる中での立法措置として国際社会の注目を集めている。",
      "category": "politics",
      "severity": 3,
      "lat": -17.8252,
      "lon": 31.0335,
      "place": "ジンバブエ",
      "sources": []
    },
    {
      "title_ja": "米国、南アフリカのHIVプログラムへの資金提供を中止",
      "summary_ja": "米国が世界最大のHIV感染者数を抱える南アフリカのHIV対策プログラムへの資金提供を停止した。公衆衛生への深刻な影響が懸念されている。",
      "category": "economy",
      "severity": 4,
      "lat": -30.5595,
      "lon": 22.9375,
      "place": "南アフリカ",
      "sources": []
    },
    {
      "title_ja": "ノルウェー、イスラエル違法入植地とのパレスチナ貿易禁止を検討",
      "summary_ja": "ノルウェーがイスラエルによる違法な入植地との貿易を禁止することを目指している。パレスチナ情勢に対する国際的な圧力の高まりを反映した動きとして注目される。",
      "category": "politics",
      "severity": 2,
      "lat": 59.9139,
      "lon": 10.7522,
      "place": "ノルウェー・オスロ",
      "sources": []
    }
  ]
}