{"updated":"2026-06-20T13:49:08Z","model":"claude-haiku-4-5","thresholds":{"mag_min":4.5,"top_n":8},"countries":[{"code":"US","name_ja":"アメリカ","score":100,"level":5,"lat":36.938,"lon":-95.567,"components":{"conflict":1493.5,"protests":79.2,"news":0.0,"quakes":0.0},"counts":{"conflict":452,"protests":67,"news":0,"quakes":0},"top_events":[],"rank":1,"trend":{"dod":null,"normal":null,"isNew":true},"narrative_ja":"452件の紛争が記録されており、他国と比較して最も多くの紛争に関与している。"},{"code":"IS","name_ja":"イスラエル","score":100,"level":5,"lat":31.575,"lon":34.659,"components":{"conflict":724.8,"protests":31.6,"news":0.0,"quakes":0.0},"counts":{"conflict":204,"protests":30,"news":0,"quakes":0},"top_events":[],"rank":2,"trend":{"dod":null,"normal":null,"isNew":true},"narrative_ja":"204件の紛争が記録されており、継続的な紛争状況にある。"},{"code":"LE","name_ja":"レバノン","score":100,"level":5,"lat":33.745,"lon":35.685,"components":{"conflict":523.7,"protests":1.7,"news":15.0,"quakes":0.0},"counts":{"conflict":156,"protests":2,"news":10,"quakes":0},"top_events":[{"title":"英国、イスラエル閣僚のレバノンに関する過激な発言を非難","place":"レバノン","url":"https://www.aljazeera.com/news/2026/6/20/uk-condemns-israeli-minister-over-inflammatory-lebanon-remarks?traffic_source=rss"},{"title":"米国特使がスイスに向かう、イスラエルのレバノン攻撃が和平協議を脅かす","place":"レバノン","url":"https://www.aljazeera.com/news/2026/6/20/us-envoy-headed-for-switzerland-israeli-strikes-on-lebanon-threaten-talks?traffic_source=rss"},{"title":"停戦にもかかわらずイスラエルのレバノン攻撃で複数人が殺害されたと報告","place":"レバノン","url":"https://www.bbc.com/news/articles/cx240k9l112o?at_medium=RSS&at_campaign=rss"}],"rank":3,"trend":{"dod":null,"normal":null,"isNew":true},"narrative_ja":"イスラエルとの継続的な軍事衝突により156件の紛争が記録されており、停戦合意にもかかわらず攻撃が報告されている。"},{"code":"IN","name_ja":"インド","score":100,"level":5,"lat":24.001,"lon":77.731,"components":{"conflict":417.2,"protests":62.2,"news":0.0,"quakes":0.0},"counts":{"conflict":119,"protests":43,"news":0,"quakes":0},"top_events":[],"rank":4,"trend":{"dod":null,"normal":null,"isNew":true},"narrative_ja":"119件の紛争と43件の抗議が記録されており、複数の紛争と国内の抗議活動が並行している。"},{"code":"UK","name_ja":"イギリス","score":100,"level":5,"lat":53.331,"lon":-2.418,"components":{"conflict":469.0,"protests":10.9,"news":0.8,"quakes":0.0},"counts":{"conflict":134,"protests":10,"news":1,"quakes":0},"top_events":[{"title":"イスラエル批判の医師が沈黙させられる懸念、保健監視機関が争点となっている反ユダヤ主義定義を採用","place":"イギリス（ロンドン）","url":"https://www.theguardian.com/world/2026/jun/20/ahpra-adopts-ihra-antisemitism-definition-ntwnfb"}],"rank":5,"trend":{"dod":null,"normal":null,"isNew":true},"narrative_ja":"イスラエル関連の政治的対立により134件の紛争が記録されており、反ユダヤ主義定義をめぐる国内の議論が存在する。"},{"code":"UP","name_ja":"ウクライナ","score":100,"level":5,"lat":49.207,"lon":32.683,"components":{"conflict":332.8,"protests":3.5,"news":0.0,"quakes":0.0},"counts":{"conflict":96,"protests":3,"news":0,"quakes":0},"top_events":[],"rank":6,"trend":{"dod":null,"normal":null,"isNew":true},"narrative_ja":"96件の紛争が記録されており、継続的な紛争状況にある。"},{"code":"RS","name_ja":"ロシア","score":100,"level":5,"lat":54.399,"lon":56.695,"components":{"conflict":325.8,"protests":10.0,"news":0.0,"quakes":0.0},"counts":{"conflict":83,"protests":9,"news":0,"quakes":0},"top_events":[],"rank":7,"trend":{"dod":null,"normal":null,"isNew":true},"narrative_ja":"83件の紛争が記録されており、複数の紛争に関与している。"},{"code":"IR","name_ja":"イラン","score":98,"level":5,"lat":33.108,"lon":52.7,"components":{"conflict":279.7,"protests":47.4,"news":2.2,"quakes":0.0},"counts":{"conflict":90,"protests":38,"news":2,"quakes":0},"top_events":[{"title":"イランの政治派閥は米国の平和合意にどう対応しているか","place":"イラン","url":"https://www.aljazeera.com/news/2026/6/20/where-do-irans-political-factions-stand-on-the-us-peace-deal?traffic_source=rss"},{"title":"イランの新指導部は110日間の戦争からどのような教訓を得るのか？","place":"イラン","url":"https://www.theguardian.com/world/2026/jun/20/what-lessons-will-irans-new-leadership-draw-from-the-110-day-war"}],"rank":8,"trend":{"dod":null,"normal":null,"isNew":true},"narrative_ja":"90件の紛争と38件の抗議が記録されており、米国との関係や地域紛争をめぐる政治派閥間の対立がある。"},{"code":"NI","name_ja":"ナイジェリア","score":95,"level":5,"lat":9.061,"lon":6.706,"components":{"conflict":316.0,"protests":4.5,"news":0.0,"quakes":0.0},"counts":{"conflict":96,"protests":3,"news":0,"quakes":0},"top_events":[],"rank":9,"trend":{"dod":null,"normal":null,"isNew":true}},{"code":"PK","name_ja":"パキスタン","score":81,"level":5,"lat":31.983,"lon":71.701,"components":{"conflict":258.4,"protests":14.7,"news":0.0,"quakes":0.0},"counts":{"conflict":62,"protests":10,"news":0,"quakes":0},"top_events":[],"rank":10,"trend":{"dod":null,"normal":null,"isNew":true}},{"code":"BG","name_ja":"バングラデシュ","score":50,"level":3,"lat":24.467,"lon":89.901,"components":{"conflict":93.6,"protests":74.9,"news":0.0,"quakes":0.0},"counts":{"conflict":22,"protests":38,"news":0,"quakes":0},"top_events":[],"rank":11,"trend":{"dod":null,"normal":null,"isNew":true}},{"code":"AF","name_ja":"アフガニスタン","score":36,"level":2,"lat":33.95,"lon":67.847,"components":{"conflict":122.1,"protests":0.0,"news":0.0,"quakes":0.0},"counts":{"conflict":26,"protests":0,"news":0,"quakes":0},"top_events":[],"rank":12,"trend":{"dod":null,"normal":null,"isNew":true}},{"code":"SU","name_ja":"スーダン","score":35,"level":2,"lat":15.14,"lon":29.796,"components":{"conflict":119.0,"protests":0.0,"news":0.0,"quakes":0.0},"counts":{"conflict":29,"protests":0,"news":0,"quakes":0},"top_events":[],"rank":13,"trend":{"dod":null,"normal":null,"isNew":true}},{"code":"AS","name_ja":"オーストラリア","score":28,"level":2,"lat":-32.007,"lon":143.863,"components":{"conflict":88.3,"protests":5.5,"news":0.3,"quakes":0.0},"counts":{"conflict":32,"protests":4,"news":1,"quakes":0},"top_events":[{"title":"オーストラリアがH5N1鳥インフルエンザの初感染を確認、ウイルスが全大陸に拡大","place":"オーストラリア","url":"https://www.bbc.com/news/articles/c4gykxklvl5o?at_medium=RSS&at_campaign=rss"}],"rank":14,"trend":{"dod":null,"normal":null,"isNew":true}},{"code":"EI","name_ja":"アイルランド","score":24,"level":2,"lat":53.356,"lon":-6.875,"components":{"conflict":71.4,"protests":7.7,"news":0.0,"quakes":0.0},"counts":{"conflict":19,"protests":6,"news":0,"quakes":0},"top_events":[],"rank":15,"trend":{"dod":null,"normal":null,"isNew":true}},{"code":"FR","name_ja":"フランス","score":23,"level":2,"lat":47.276,"lon":1.89,"components":{"conflict":55.8,"protests":21.2,"news":0.0,"quakes":0.0},"counts":{"conflict":24,"protests":19,"news":0,"quakes":0},"top_events":[],"rank":16,"trend":{"dod":null,"normal":null,"isNew":true}},{"code":"CH","name_ja":"中国","score":19,"level":1,"lat":36.049,"lon":108.122,"components":{"conflict":56.0,"protests":8.8,"news":0.6,"quakes":0.0},"counts":{"conflict":22,"protests":8,"news":1,"quakes":0},"top_events":[{"title":"ネパール高地でチベットのボン教が気候変動の脅威にさらされている","place":"ネパール高地（ヒマラヤ山脈地域）","url":"https://www.aljazeera.com/features/longform/2026/6/20/in-nepals-highlands-climate-change-threatens-tibets-bon-faith?traffic_source=rss"}],"rank":17,"trend":{"dod":null,"normal":null,"isNew":true}},{"code":"RP","name_ja":"フィリピン","score":19,"level":1,"lat":12.789,"lon":122.179,"components":{"conflict":52.5,"protests":12.8,"news":0.0,"quakes":0.0},"counts":{"conflict":12,"protests":15,"news":0,"quakes":0},"top_events":[],"rank":18,"trend":{"dod":null,"normal":null,"isNew":true}},{"code":"CA","name_ja":"カナダ","score":18,"level":1,"lat":48.009,"lon":-87.614,"components":{"conflict":52.6,"protests":9.3,"news":0.0,"quakes":0.0},"counts":{"conflict":17,"protests":9,"news":0,"quakes":0},"top_events":[],"rank":19,"trend":{"dod":null,"normal":null,"isNew":true}},{"code":"NZ","name_ja":"ニュージーランド","score":16,"level":1,"lat":-40.046,"lon":137.44,"components":{"conflict":54.9,"protests":0.0,"news":0.0,"quakes":0.0},"counts":{"conflict":15,"protests":0,"news":0,"quakes":0},"top_events":[],"rank":20,"trend":{"dod":null,"normal":null,"isNew":true}},{"code":"PL","name_ja":"ポーランド","score":14,"level":1,"lat":52.155,"lon":20.726,"components":{"conflict":41.8,"protests":3.4,"news":0.8,"quakes":0.0},"counts":{"conflict":14,"protests":4,"news":1,"quakes":0},"top_events":[{"title":"ウクライナ高官がWWII論争でポーランド勲章を返却","place":"ウクライナ・ポーランド","url":"https://www.aljazeera.com/news/2026/6/20/top-ukrainian-officials-return-polish-awards-in-wwii-dispute?traffic_source=rss"}],"rank":21,"trend":{"dod":null,"normal":null,"isNew":true}},{"code":"SF","name_ja":"南アフリカ","score":13,"level":1,"lat":-29.426,"lon":25.283,"components":{"conflict":26.8,"protests":16.8,"news":0.0,"quakes":0.0},"counts":{"conflict":5,"protests":17,"news":0,"quakes":0},"top_events":[],"rank":22,"trend":{"dod":null,"normal":null,"isNew":true}},{"code":"SY","name_ja":"シリア","score":13,"level":1,"lat":34.981,"lon":37.034,"components":{"conflict":41.7,"protests":1.9,"news":1.5,"quakes":0.0},"counts":{"conflict":10,"protests":1,"news":1,"quakes":0},"top_events":[{"title":"シリアで拘束されていたドイツ人記者が帰国、家族が発表","place":"シリア","url":"https://www.aljazeera.com/news/2026/6/20/german-journalist-held-in-syria-back-home-family-says?traffic_source=rss"}],"rank":23,"trend":{"dod":null,"normal":null,"isNew":true}},{"code":"IT","name_ja":"イタリア","score":12,"level":1,"lat":43.296,"lon":12.153,"components":{"conflict":40.0,"protests":1.5,"news":0.0,"quakes":0.0},"counts":{"conflict":15,"protests":2,"news":0,"quakes":0},"top_events":[],"rank":24,"trend":{"dod":null,"normal":null,"isNew":true}},{"code":"GM","name_ja":"ドイツ","score":12,"level":1,"lat":51.076,"lon":11.222,"components":{"conflict":36.8,"protests":4.6,"news":0.0,"quakes":0.0},"counts":{"conflict":11,"protests":4,"news":0,"quakes":0},"top_events":[],"rank":25,"trend":{"dod":null,"normal":null,"isNew":true}},{"code":"DR","name_ja":"ドミニカ共和国","score":12,"level":1,"lat":18.574,"lon":-69.38,"components":{"conflict":40.5,"protests":0.0,"news":0.0,"quakes":0.0},"counts":{"conflict":10,"protests":0,"news":0,"quakes":0},"top_events":[],"rank":26,"trend":{"dod":null,"normal":null,"isNew":true}},{"code":"JA","name_ja":"日本","score":11,"level":1,"lat":35.442,"lon":137.977,"components":{"conflict":32.5,"protests":3.5,"news":0.0,"quakes":1.2},"counts":{"conflict":8,"protests":3,"news":0,"quakes":1},"top_events":[{"title":"M4.5 地震","place":"20 km SE of Nyūzen, Japan","url":"https://earthquake.usgs.gov/earthquakes/eventpage/us7000sunx"}],"rank":27,"trend":{"dod":null,"normal":null,"isNew":true}},{"code":"CO","name_ja":"コロンビア","score":11,"level":1,"lat":3.134,"lon":-75.674,"components":{"conflict":37.5,"protests":0.8,"news":0.0,"quakes":0.0},"counts":{"conflict":9,"protests":1,"news":0,"quakes":0},"top_events":[],"rank":28,"trend":{"dod":null,"normal":null,"isNew":true}},{"code":"SO","name_ja":"ソマリア","score":10,"level":1,"lat":3.377,"lon":45.6,"components":{"conflict":33.4,"protests":0.0,"news":0.0,"quakes":0.0},"counts":{"conflict":6,"protests":0,"news":0,"quakes":0},"top_events":[],"rank":29,"trend":{"dod":null,"normal":null,"isNew":true}},{"code":"SZ","name_ja":"スイス","score":9,"level":1,"lat":46.843,"lon":7.607,"components":{"conflict":24.5,"protests":2.6,"news":1.5,"quakes":0.0},"counts":{"conflict":11,"protests":2,"news":1,"quakes":0},"top_events":[{"title":"米国とイラン、スイスで停戦交渉を進行中","place":"スイス","url":"https://www.france24.com/en/us-iran-ceasefire-negociations-underway-in-switzerland"}],"rank":30,"trend":{"dod":null,"normal":null,"isNew":true}},{"code":"CU","name_ja":"キューバ","score":9,"level":1,"lat":22.467,"lon":-80.649,"components":{"conflict":19.3,"protests":11.2,"news":0.0,"quakes":0.0},"counts":{"conflict":6,"protests":6,"news":0,"quakes":0},"top_events":[],"rank":31,"trend":{"dod":null,"normal":null,"isNew":true}},{"code":"BL","name_ja":"ボリビア","score":8,"level":1,"lat":-16.563,"lon":-67.748,"components":{"conflict":12.2,"protests":15.9,"news":0.0,"quakes":0.0},"counts":{"conflict":2,"protests":10,"news":0,"quakes":0},"top_events":[],"rank":32,"trend":{"dod":null,"normal":null,"isNew":true}},{"code":"EG","name_ja":"エジプト","score":8,"level":1,"lat":29.674,"lon":31.089,"components":{"conflict":25.5,"protests":0.0,"news":0.0,"quakes":0.0},"counts":{"conflict":9,"protests":0,"news":0,"quakes":0},"top_events":[],"rank":33,"trend":{"dod":null,"normal":null,"isNew":true}},{"code":"VM","name_ja":"ベトナム","score":7,"level":1,"lat":12.228,"lon":106.805,"components":{"conflict":20.7,"protests":1.2,"news":0.0,"quakes":0.0},"counts":{"conflict":6,"protests":2,"news":0,"quakes":0},"top_events":[],"rank":34,"trend":{"dod":null,"normal":null,"isNew":true}},{"code":"ID","name_ja":"インドネシア","score":6,"level":1,"lat":-5.485,"lon":112.111,"components":{"conflict":15.0,"protests":6.1,"news":0.0,"quakes":0.0},"counts":{"conflict":7,"protests":7,"news":0,"quakes":0},"top_events":[],"rank":35,"trend":{"dod":null,"normal":null,"isNew":true}},{"code":"NL","name_ja":"オランダ","score":6,"level":1,"lat":52.402,"lon":5.203,"components":{"conflict":19.4,"protests":1.5,"news":0.0,"quakes":0.0},"counts":{"conflict":6,"protests":1,"news":0,"quakes":0},"top_events":[],"rank":36,"trend":{"dod":null,"normal":null,"isNew":true}},{"code":"QA","name_ja":"カタール","score":6,"level":1,"lat":25.472,"lon":51.287,"components":{"conflict":16.7,"protests":2.0,"news":0.0,"quakes":0.0},"counts":{"conflict":4,"protests":2,"news":0,"quakes":0},"top_events":[],"rank":37,"trend":{"dod":null,"normal":null,"isNew":true}},{"code":"LT","name_ja":"レソト","score":6,"level":1,"lat":-29.808,"lon":27.816,"components":{"conflict":21.1,"protests":0.0,"news":0.0,"quakes":0.0},"counts":{"conflict":5,"protests":0,"news":0,"quakes":0},"top_events":[],"rank":38,"trend":{"dod":null,"normal":null,"isNew":true}},{"code":"WE","name_ja":"ヨルダン川西岸","score":5,"level":1,"lat":31.852,"lon":35.207,"components":{"conflict":4.0,"protests":11.7,"news":0.0,"quakes":0.0},"counts":{"conflict":1,"protests":9,"news":0,"quakes":0},"top_events":[],"rank":39,"trend":{"dod":null,"normal":null,"isNew":true}},{"code":"BR","name_ja":"ブラジル","score":5,"level":1,"lat":-11.37,"lon":-40.11,"components":{"conflict":17.2,"protests":0.9,"news":0.0,"quakes":0.0},"counts":{"conflict":5,"protests":1,"news":0,"quakes":0},"top_events":[],"rank":40,"trend":{"dod":null,"normal":null,"isNew":true}},{"code":"MU","name_ja":"オマーン","score":5,"level":1,"lat":23.947,"lon":57.737,"components":{"conflict":15.6,"protests":0.0,"news":0.0,"quakes":0.0},"counts":{"conflict":6,"protests":0,"news":0,"quakes":0},"top_events":[],"rank":41,"trend":{"dod":null,"normal":null,"isNew":true}},{"code":"MX","name_ja":"メキシコ","score":5,"level":1,"lat":21.762,"lon":-100.64,"components":{"conflict":13.9,"protests":2.6,"news":0.0,"quakes":0.0},"counts":{"conflict":4,"protests":1,"news":0,"quakes":0},"top_events":[],"rank":42,"trend":{"dod":null,"normal":null,"isNew":true}},{"code":"TH","name_ja":"タイ","score":5,"level":1,"lat":13.858,"lon":100.749,"components":{"conflict":16.9,"protests":0.0,"news":0.0,"quakes":0.0},"counts":{"conflict":5,"protests":0,"news":0,"quakes":0},"top_events":[],"rank":43,"trend":{"dod":null,"normal":null,"isNew":true}},{"code":"BC","name_ja":"ボツワナ","score":5,"level":1,"lat":-24.432,"lon":25.967,"components":{"conflict":14.4,"protests":1.2,"news":0.0,"quakes":0.0},"counts":{"conflict":2,"protests":1,"news":0,"quakes":0},"top_events":[],"rank":44,"trend":{"dod":null,"normal":null,"isNew":true}},{"code":"ET","name_ja":"エチオピア","score":4,"level":1,"lat":10.804,"lon":39.259,"components":{"conflict":10.4,"protests":3.7,"news":0.0,"quakes":0.0},"counts":{"conflict":4,"protests":2,"news":0,"quakes":0},"top_events":[],"rank":45,"trend":{"dod":null,"normal":null,"isNew":true}},{"code":"ZI","name_ja":"ジンバブエ","score":4,"level":1,"lat":-19.902,"lon":29.165,"components":{"conflict":12.2,"protests":1.5,"news":0.0,"quakes":0.0},"counts":{"conflict":4,"protests":1,"news":0,"quakes":0},"top_events":[],"rank":46,"trend":{"dod":null,"normal":null,"isNew":true}},{"code":"VE","name_ja":"ベネズエラ","score":4,"level":1,"lat":8.0,"lon":-66.0,"components":{"conflict":12.6,"protests":0.0,"news":0.0,"quakes":0.0},"counts":{"conflict":5,"protests":0,"news":0,"quakes":0},"top_events":[],"rank":47,"trend":{"dod":null,"normal":null,"isNew":true}},{"code":"BN","name_ja":"ベナン","score":4,"level":1,"lat":9.5,"lon":2.25,"components":{"conflict":12.2,"protests":0.0,"news":0.0,"quakes":0.0},"counts":{"conflict":4,"protests":0,"news":0,"quakes":0},"top_events":[],"rank":48,"trend":{"dod":null,"normal":null,"isNew":true}},{"code":"JO","name_ja":"ヨルダン","score":4,"level":1,"lat":31.0,"lon":36.0,"components":{"conflict":11.9,"protests":0.0,"news":0.0,"quakes":0.0},"counts":{"conflict":4,"protests":0,"news":0,"quakes":0},"top_events":[],"rank":49,"trend":{"dod":null,"normal":null,"isNew":true}},{"code":"TU","name_ja":"トルコ","score":4,"level":1,"lat":39.693,"lon":33.187,"components":{"conflict":11.3,"protests":1.9,"news":0.0,"quakes":0.0},"counts":{"conflict":3,"protests":1,"news":0,"quakes":0},"top_events":[],"rank":50,"trend":{"dod":null,"normal":null,"isNew":true}},{"code":"LY","name_ja":"リビア","score":4,"level":1,"lat":26.102,"lon":16.467,"components":{"conflict":12.7,"protests":1.7,"news":0.0,"quakes":0.0},"counts":{"conflict":3,"protests":1,"news":0,"quakes":0},"top_events":[],"rank":51,"trend":{"dod":null,"normal":null,"isNew":true}},{"code":"IZ","name_ja":"イラク","score":4,"level":1,"lat":33.027,"lon":44.032,"components":{"conflict":10.5,"protests":0.0,"news":1.5,"quakes":0.0},"counts":{"conflict":3,"protests":0,"news":1,"quakes":0},"top_events":[{"title":"イラン戦争113日目：テヘランがレバノン停戦についてアメリカに圧力","place":"イラク・イラン周辺地域","url":"https://www.aljazeera.com/news/2026/6/20/iran-war-day-113-tehran-presses-us-over-lebanon-ceasefire?traffic_source=rss"}],"rank":52,"trend":{"dod":null,"normal":null,"isNew":true}},{"code":"NG","name_ja":"ニジェール","score":4,"level":1,"lat":14.483,"lon":4.407,"components":{"conflict":13.7,"protests":0.0,"news":0.0,"quakes":0.0},"counts":{"conflict":3,"protests":0,"news":0,"quakes":0},"top_events":[],"rank":53,"trend":{"dod":null,"normal":null,"isNew":true}},{"code":"BH","name_ja":"ベリーズ","score":4,"level":1,"lat":16.488,"lon":-84.098,"components":{"conflict":12.5,"protests":0.0,"news":0.0,"quakes":0.0},"counts":{"conflict":3,"protests":0,"news":0,"quakes":0},"top_events":[],"rank":54,"trend":{"dod":null,"normal":null,"isNew":true}},{"code":"NP","name_ja":"ネパール","score":4,"level":1,"lat":28.0,"lon":84.0,"components":{"conflict":12.6,"protests":0.0,"news":0.0,"quakes":0.0},"counts":{"conflict":3,"protests":0,"news":0,"quakes":0},"top_events":[],"rank":55,"trend":{"dod":null,"normal":null,"isNew":true}},{"code":"BE","name_ja":"ベルギー","score":3,"level":1,"lat":50.833,"lon":4.266,"components":{"conflict":7.9,"protests":3.5,"news":0.0,"quakes":0.0},"counts":{"conflict":2,"protests":6,"news":0,"quakes":0},"top_events":[],"rank":56,"trend":{"dod":null,"normal":null,"isNew":true}},{"code":"BO","name_ja":"ベラルーシ","score":3,"level":1,"lat":53.51,"lon":27.755,"components":{"conflict":6.7,"protests":2.9,"news":0.0,"quakes":0.0},"counts":{"conflict":4,"protests":3,"news":0,"quakes":0},"top_events":[],"rank":57,"trend":{"dod":null,"normal":null,"isNew":true}},{"code":"GR","name_ja":"ギリシャ","score":3,"level":1,"lat":39.37,"lon":22.296,"components":{"conflict":7.7,"protests":2.7,"news":0.0,"quakes":0.0},"counts":{"conflict":3,"protests":4,"news":0,"quakes":0},"top_events":[],"rank":58,"trend":{"dod":null,"normal":null,"isNew":true}},{"code":"SP","name_ja":"スペイン","score":3,"level":1,"lat":41.263,"lon":-0.477,"components":{"conflict":11.4,"protests":0.0,"news":0.0,"quakes":0.0},"counts":{"conflict":5,"protests":0,"news":0,"quakes":0},"top_events":[],"rank":59,"trend":{"dod":null,"normal":null,"isNew":true}},{"code":"CF","name_ja":"コンゴ共和国","score":3,"level":1,"lat":-1.0,"lon":15.0,"components":{"conflict":9.6,"protests":0.0,"news":0.0,"quakes":0.0},"counts":{"conflict":4,"protests":0,"news":0,"quakes":0},"top_events":[],"rank":60,"trend":{"dod":null,"normal":null,"isNew":true}},{"code":"GZ","name_ja":"GZ","score":3,"level":1,"lat":31.467,"lon":34.415,"components":{"conflict":11.0,"protests":0.0,"news":0.0,"quakes":0.0},"counts":{"conflict":3,"protests":0,"news":0,"quakes":0},"top_events":[],"rank":61,"trend":{"dod":null,"normal":null,"isNew":true}},{"code":"ML","name_ja":"マリ","score":3,"level":1,"lat":17.0,"lon":-4.0,"components":{"conflict":11.4,"protests":0.0,"news":0.0,"quakes":0.0},"counts":{"conflict":3,"protests":0,"news":0,"quakes":0},"top_events":[],"rank":62,"trend":{"dod":null,"normal":null,"isNew":true}},{"code":"PO","name_ja":"ポルトガル","score":3,"level":1,"lat":39.5,"lon":-8.0,"components":{"conflict":8.9,"protests":0.0,"news":0.0,"quakes":0.0},"counts":{"conflict":3,"protests":0,"news":0,"quakes":0},"top_events":[],"rank":63,"trend":{"dod":null,"normal":null,"isNew":true}},{"code":"TW","name_ja":"台湾","score":3,"level":1,"lat":24.39,"lon":120.653,"components":{"conflict":11.3,"protests":0.0,"news":0.0,"quakes":0.0},"counts":{"conflict":3,"protests":0,"news":0,"quakes":0},"top_events":[],"rank":64,"trend":{"dod":null,"normal":null,"isNew":true}},{"code":"HK","name_ja":"香港","score":3,"level":1,"lat":22.335,"lon":114.142,"components":{"conflict":7.2,"protests":2.2,"news":0.0,"quakes":0.0},"counts":{"conflict":1,"protests":1,"news":0,"quakes":0},"top_events":[],"rank":65,"trend":{"dod":null,"normal":null,"isNew":true}},{"code":"UG","name_ja":"ウガンダ","score":3,"level":1,"lat":0.995,"lon":30.638,"components":{"conflict":10.4,"protests":0.0,"news":0.0,"quakes":0.0},"counts":{"conflict":2,"protests":0,"news":0,"quakes":0},"top_events":[],"rank":66,"trend":{"dod":null,"normal":null,"isNew":true}},{"code":"AR","name_ja":"アルゼンチン","score":2,"level":1,"lat":-33.107,"lon":-59.594,"components":{"conflict":7.2,"protests":0.0,"news":0.0,"quakes":1.2},"counts":{"conflict":4,"protests":0,"news":0,"quakes":1},"top_events":[{"title":"M4.5 地震","place":"60 km WNW of Abra Pampa, Argentina","url":"https://earthquake.usgs.gov/earthquakes/eventpage/us7000suru"}],"rank":67,"trend":{"dod":null,"normal":null,"isNew":true}},{"code":"KE","name_ja":"ケニア","score":2,"level":1,"lat":-0.047,"lon":36.055,"components":{"conflict":7.7,"protests":0.0,"news":0.0,"quakes":0.0},"counts":{"conflict":3,"protests":0,"news":0,"quakes":0},"top_events":[],"rank":68,"trend":{"dod":null,"normal":null,"isNew":true}},{"code":"GH","name_ja":"ガーナ","score":2,"level":1,"lat":6.799,"lon":-0.139,"components":{"conflict":4.0,"protests":1.4,"news":0.8,"quakes":0.0},"counts":{"conflict":1,"protests":1,"news":1,"quakes":0},"top_events":[{"title":"ガーナで開催の歴史的会議で修復的正義に関する国際枠組みが採択される","place":"ガーナ","url":"https://www.theguardian.com/news/2026/jun/19/global-framework-reparations-justice-adopted-at-landmark-conference-in-accra-ghana"}],"rank":69,"trend":{"dod":null,"normal":null,"isNew":true}},{"code":"CE","name_ja":"スリランカ","score":2,"level":1,"lat":7.294,"lon":80.3,"components":{"conflict":6.2,"protests":1.2,"news":0.0,"quakes":0.0},"counts":{"conflict":2,"protests":1,"news":0,"quakes":0},"top_events":[],"rank":70,"trend":{"dod":null,"normal":null,"isNew":true}},{"code":"DJ","name_ja":"ジブチ","score":2,"level":1,"lat":19.0,"lon":39.5,"components":{"conflict":6.6,"protests":0.0,"news":0.0,"quakes":0.0},"counts":{"conflict":2,"protests":0,"news":0,"quakes":0},"top_events":[],"rank":71,"trend":{"dod":null,"normal":null,"isNew":true}},{"code":"KS","name_ja":"韓国","score":2,"level":1,"lat":37.353,"lon":127.189,"components":{"conflict":6.4,"protests":0.0,"news":0.0,"quakes":0.0},"counts":{"conflict":2,"protests":0,"news":0,"quakes":0},"top_events":[],"rank":72,"trend":{"dod":null,"normal":null,"isNew":true}},{"code":"CI","name_ja":"チリ","score":2,"level":1,"lat":-28.049,"lon":-70.557,"components":{"conflict":4.1,"protests":0.0,"news":0.0,"quakes":1.4},"counts":{"conflict":1,"protests":0,"news":0,"quakes":1},"top_events":[{"title":"M4.7 地震","place":"76 km W of Ollagüe, Chile","url":"https://earthquake.usgs.gov/earthquakes/eventpage/us7000suq2"}],"rank":73,"trend":{"dod":null,"normal":null,"isNew":true}},{"code":"GY","name_ja":"ガイアナ","score":2,"level":1,"lat":6.809,"lon":-58.161,"components":{"conflict":5.8,"protests":0.0,"news":0.0,"quakes":0.0},"counts":{"conflict":2,"protests":0,"news":0,"quakes":0},"top_events":[],"rank":74,"trend":{"dod":null,"normal":null,"isNew":true}},{"code":"AU","name_ja":"オーストリア","score":2,"level":1,"lat":48.2,"lon":16.367,"components":{"conflict":5.6,"protests":0.0,"news":0.0,"quakes":0.0},"counts":{"conflict":2,"protests":0,"news":0,"quakes":0},"top_events":[],"rank":75,"trend":{"dod":null,"normal":null,"isNew":true}},{"code":"TX","name_ja":"トルクメニスタン","score":2,"level":1,"lat":37.618,"lon":62.167,"components":{"conflict":0.0,"protests":5.2,"news":0.0,"quakes":0.0},"counts":{"conflict":0,"protests":2,"news":0,"quakes":0},"top_events":[],"rank":76,"trend":{"dod":null,"normal":null,"isNew":true}},{"code":"MI","name_ja":"マラウイ","score":2,"level":1,"lat":-13.5,"lon":34.0,"components":{"conflict":6.8,"protests":0.0,"news":0.0,"quakes":0.0},"counts":{"conflict":1,"protests":0,"news":0,"quakes":0},"top_events":[],"rank":77,"trend":{"dod":null,"normal":null,"isNew":true}},{"code":"NU","name_ja":"ニカラグア","score":2,"level":1,"lat":13.0,"lon":-85.0,"components":{"conflict":5.8,"protests":0.0,"news":0.0,"quakes":0.0},"counts":{"conflict":1,"protests":0,"news":0,"quakes":0},"top_events":[],"rank":78,"trend":{"dod":null,"normal":null,"isNew":true}},{"code":"CG","name_ja":"コンゴ民主共和国","score":2,"level":1,"lat":0.0,"lon":25.0,"components":{"conflict":7.0,"protests":0.0,"news":0.0,"quakes":0.0},"counts":{"conflict":1,"protests":0,"news":0,"quakes":0},"top_events":[],"rank":79,"trend":{"dod":null,"normal":null,"isNew":true}},{"code":"AJ","name_ja":"アゼルバイジャン","score":2,"level":1,"lat":40.395,"lon":49.882,"components":{"conflict":8.1,"protests":0.0,"news":0.0,"quakes":0.0},"counts":{"conflict":1,"protests":0,"news":0,"quakes":0},"top_events":[],"rank":80,"trend":{"dod":null,"normal":null,"isNew":true}},{"code":"AL","name_ja":"アルバニア","score":1,"level":1,"lat":41.327,"lon":19.819,"components":{"conflict":0.0,"protests":4.6,"news":0.0,"quakes":0.0},"counts":{"conflict":0,"protests":4,"news":0,"quakes":0},"top_events":[],"rank":81,"trend":{"dod":null,"normal":null,"isNew":true}},{"code":"LU","name_ja":"ルクセンブルク","score":1,"level":1,"lat":49.75,"lon":6.167,"components":{"conflict":0.0,"protests":2.9,"news":0.0,"quakes":0.0},"counts":{"conflict":0,"protests":4,"news":0,"quakes":0},"top_events":[],"rank":82,"trend":{"dod":null,"normal":null,"isNew":true}},{"code":"JM","name_ja":"ジャマイカ","score":1,"level":1,"lat":18.471,"lon":-77.919,"components":{"conflict":0.0,"protests":4.0,"news":0.0,"quakes":0.0},"counts":{"conflict":0,"protests":4,"news":0,"quakes":0},"top_events":[],"rank":83,"trend":{"dod":null,"normal":null,"isNew":true}},{"code":"CY","name_ja":"キプロス","score":1,"level":1,"lat":35.078,"lon":33.591,"components":{"conflict":3.8,"protests":0.0,"news":0.0,"quakes":0.0},"counts":{"conflict":3,"protests":0,"news":0,"quakes":0},"top_events":[],"rank":84,"trend":{"dod":null,"normal":null,"isNew":true}},{"code":"ER","name_ja":"エリトリア","score":1,"level":1,"lat":15.166,"lon":38.967,"components":{"conflict":2.0,"protests":1.6,"news":0.0,"quakes":0.0},"counts":{"conflict":1,"protests":2,"news":0,"quakes":0},"top_events":[],"rank":85,"trend":{"dod":null,"normal":null,"isNew":true}},{"code":"EC","name_ja":"エクアドル","score":1,"level":1,"lat":-2.167,"lon":-79.9,"components":{"conflict":0.0,"protests":3.2,"news":0.0,"quakes":0.0},"counts":{"conflict":0,"protests":3,"news":0,"quakes":0},"top_events":[],"rank":86,"trend":{"dod":null,"normal":null,"isNew":true}},{"code":"BF","name_ja":"バハマ","score":1,"level":1,"lat":24.598,"lon":-76.746,"components":{"conflict":0.0,"protests":2.6,"news":0.0,"quakes":0.0},"counts":{"conflict":0,"protests":3,"news":0,"quakes":0},"top_events":[],"rank":87,"trend":{"dod":null,"normal":null,"isNew":true}},{"code":"KU","name_ja":"クウェート","score":1,"level":1,"lat":29.5,"lon":47.75,"components":{"conflict":3.1,"protests":0.0,"news":0.0,"quakes":0.0},"counts":{"conflict":2,"protests":0,"news":0,"quakes":0},"top_events":[],"rank":88,"trend":{"dod":null,"normal":null,"isNew":true}},{"code":"FG","name_ja":"仏領ギアナ","score":1,"level":1,"lat":5.155,"lon":-52.648,"components":{"conflict":4.3,"protests":0.0,"news":0.0,"quakes":0.0},"counts":{"conflict":2,"protests":0,"news":0,"quakes":0},"top_events":[],"rank":89,"trend":{"dod":null,"normal":null,"isNew":true}},{"code":"ZA","name_ja":"ザンビア","score":1,"level":1,"lat":-15.0,"lon":30.0,"components":{"conflict":4.3,"protests":0.0,"news":0.0,"quakes":0.0},"counts":{"conflict":2,"protests":0,"news":0,"quakes":0},"top_events":[],"rank":90,"trend":{"dod":null,"normal":null,"isNew":true}},{"code":"SA","name_ja":"サウジアラビア","score":1,"level":1,"lat":24.837,"lon":45.804,"components":{"conflict":1.7,"protests":1.2,"news":0.0,"quakes":0.0},"counts":{"conflict":1,"protests":1,"news":0,"quakes":0},"top_events":[],"rank":91,"trend":{"dod":null,"normal":null,"isNew":true}},{"code":"FJ","name_ja":"フィジー","score":1,"level":1,"lat":-18.0,"lon":178.0,"components":{"conflict":4.6,"protests":0.0,"news":0.0,"quakes":0.0},"counts":{"conflict":2,"protests":0,"news":0,"quakes":0},"top_events":[],"rank":92,"trend":{"dod":null,"normal":null,"isNew":true}},{"code":"AE","name_ja":"アラブ首長国連邦","score":1,"level":1,"lat":25.252,"lon":55.28,"components":{"conflict":4.3,"protests":0.0,"news":0.0,"quakes":0.0},"counts":{"conflict":2,"protests":0,"news":0,"quakes":0},"top_events":[],"rank":93,"trend":{"dod":null,"normal":null,"isNew":true}},{"code":"BM","name_ja":"ミャンマー","score":1,"level":1,"lat":20.371,"lon":95.964,"components":{"conflict":0.9,"protests":0.9,"news":0.0,"quakes":0.0},"counts":{"conflict":1,"protests":1,"news":0,"quakes":0},"top_events":[],"rank":94,"trend":{"dod":null,"normal":null,"isNew":true}},{"code":"SW","name_ja":"スウェーデン","score":1,"level":1,"lat":60.1,"lon":17.173,"components":{"conflict":0.0,"protests":1.8,"news":0.0,"quakes":0.0},"counts":{"conflict":0,"protests":2,"news":0,"quakes":0},"top_events":[],"rank":95,"trend":{"dod":null,"normal":null,"isNew":true}},{"code":"CJ","name_ja":"ケイマン諸島","score":1,"level":1,"lat":19.5,"lon":-80.667,"components":{"conflict":3.4,"protests":0.0,"news":0.0,"quakes":0.0},"counts":{"conflict":1,"protests":0,"news":0,"quakes":0},"top_events":[],"rank":96,"trend":{"dod":null,"normal":null,"isNew":true}},{"code":"SN","name_ja":"シンガポール","score":1,"level":1,"lat":1.367,"lon":103.8,"components":{"conflict":3.8,"protests":0.0,"news":0.0,"quakes":0.0},"counts":{"conflict":1,"protests":0,"news":0,"quakes":0},"top_events":[],"rank":97,"trend":{"dod":null,"normal":null,"isNew":true}},{"code":"YM","name_ja":"イエメン","score":1,"level":1,"lat":15.355,"lon":44.207,"components":{"conflict":2.5,"protests":0.0,"news":0.0,"quakes":0.0},"counts":{"conflict":1,"protests":0,"news":0,"quakes":0},"top_events":[],"rank":98,"trend":{"dod":null,"normal":null,"isNew":true}},{"code":"AG","name_ja":"アルジェリア","score":1,"level":1,"lat":28.0,"lon":3.0,"components":{"conflict":4.1,"protests":0.0,"news":0.0,"quakes":0.0},"counts":{"conflict":1,"protests":0,"news":0,"quakes":0},"top_events":[],"rank":99,"trend":{"dod":null,"normal":null,"isNew":true}},{"code":"MZ","name_ja":"モザンビーク","score":1,"level":1,"lat":-18.25,"lon":35.0,"components":{"conflict":2.4,"protests":0.0,"news":0.0,"quakes":0.0},"counts":{"conflict":1,"protests":0,"news":0,"quakes":0},"top_events":[],"rank":100,"trend":{"dod":null,"normal":null,"isNew":true}},{"code":"KN","name_ja":"北朝鮮","score":1,"level":1,"lat":40.0,"lon":127.0,"components":{"conflict":4.1,"protests":0.0,"news":0.0,"quakes":0.0},"counts":{"conflict":1,"protests":0,"news":0,"quakes":0},"top_events":[],"rank":101,"trend":{"dod":null,"normal":null,"isNew":true}},{"code":"WS","name_ja":"サモア","score":1,"level":1,"lat":-13.803,"lon":-172.178,"components":{"conflict":3.6,"protests":0.0,"news":0.0,"quakes":0.0},"counts":{"conflict":1,"protests":0,"news":0,"quakes":0},"top_events":[],"rank":102,"trend":{"dod":null,"normal":null,"isNew":true}},{"code":"HO","name_ja":"ホンジュラス","score":1,"level":1,"lat":15.0,"lon":-86.5,"components":{"conflict":4.2,"protests":0.0,"news":0.0,"quakes":0.0},"counts":{"conflict":1,"protests":0,"news":0,"quakes":0},"top_events":[],"rank":103,"trend":{"dod":null,"normal":null,"isNew":true}},{"code":"HA","name_ja":"ハイチ","score":0,"level":1,"lat":19.0,"lon":-72.417,"components":{"conflict":0.0,"protests":1.1,"news":0.0,"quakes":0.0},"counts":{"conflict":0,"protests":2,"news":0,"quakes":0},"top_events":[],"rank":104,"trend":{"dod":null,"normal":null,"isNew":true}},{"code":"RO","name_ja":"ルーマニア","score":0,"level":1,"lat":44.433,"lon":26.1,"components":{"conflict":0.0,"protests":1.4,"news":0.0,"quakes":0.0},"counts":{"conflict":0,"protests":2,"news":0,"quakes":0},"top_events":[],"rank":105,"trend":{"dod":null,"normal":null,"isNew":true}},{"code":"JE","name_ja":"JE","score":0,"level":1,"lat":49.217,"lon":-2.117,"components":{"conflict":1.4,"protests":0.0,"news":0.0,"quakes":0.0},"counts":{"conflict":1,"protests":0,"news":0,"quakes":0},"top_events":[],"rank":106,"trend":{"dod":null,"normal":null,"isNew":true}},{"code":"PE","name_ja":"ペルー","score":0,"level":1,"lat":-10.0,"lon":-76.0,"components":{"conflict":0.9,"protests":0.0,"news":0.0,"quakes":0.0},"counts":{"conflict":1,"protests":0,"news":0,"quakes":0},"top_events":[],"rank":107,"trend":{"dod":null,"normal":null,"isNew":true}},{"code":"DA","name_ja":"デンマーク","score":0,"level":1,"lat":56.0,"lon":10.0,"components":{"conflict":1.4,"protests":0.0,"news":0.0,"quakes":0.0},"counts":{"conflict":1,"protests":0,"news":0,"quakes":0},"top_events":[],"rank":108,"trend":{"dod":null,"normal":null,"isNew":true}},{"code":"MP","name_ja":"モーリシャス","score":0,"level":1,"lat":16.0,"lon":146.0,"components":{"conflict":1.4,"protests":0.0,"news":0.0,"quakes":0.0},"counts":{"conflict":1,"protests":0,"news":0,"quakes":0},"top_events":[],"rank":109,"trend":{"dod":null,"normal":null,"isNew":true}},{"code":"CB","name_ja":"カンボジア","score":0,"level":1,"lat":13.0,"lon":105.0,"components":{"conflict":0.0,"protests":0.9,"news":0.0,"quakes":0.0},"counts":{"conflict":0,"protests":1,"news":0,"quakes":0},"top_events":[],"rank":110,"trend":{"dod":null,"normal":null,"isNew":true}},{"code":"IC","name_ja":"アイスランド","score":0,"level":1,"lat":65.0,"lon":-18.0,"components":{"conflict":0.0,"protests":0.5,"news":0.0,"quakes":0.0},"counts":{"conflict":0,"protests":1,"news":0,"quakes":0},"top_events":[],"rank":111,"trend":{"dod":null,"normal":null,"isNew":true}},{"code":"KZ","name_ja":"カザフスタン","score":0,"level":1,"lat":48.0,"lon":68.0,"components":{"conflict":0.0,"protests":0.7,"news":0.0,"quakes":0.0},"counts":{"conflict":0,"protests":1,"news":0,"quakes":0},"top_events":[],"rank":112,"trend":{"dod":null,"normal":null,"isNew":true}},{"code":"EZ","name_ja":"チェコ","score":0,"level":1,"lat":50.075,"lon":14.438,"components":{"conflict":0.0,"protests":0.0,"news":0.8,"quakes":0.0},"counts":{"conflict":0,"protests":0,"news":1,"quakes":0},"top_events":[{"title":"ゼレンスキー大統領、ポーランドの最高勲章を剥奪 WW2時代の軍部隊名巡り","place":"ワルシャワ、ポーランド","url":"https://www.bbc.com/news/articles/cr7xzg3dmj8o?at_medium=RSS&at_campaign=rss"}],"rank":113,"trend":{"dod":null,"normal":null,"isNew":true}},{"code":"TS","name_ja":"チュニジア","score":0,"level":1,"lat":35.899,"lon":9.537,"components":{"conflict":0.0,"protests":0.0,"news":0.6,"quakes":0.0},"counts":{"conflict":0,"protests":0,"news":1,"quakes":0},"top_events":[{"title":"チュニジアの再生可能エネルギー戦略が抵抗に直面している理由","place":"チュニジア","url":"https://www.aljazeera.com/opinions/2026/6/20/why-tunisias-renewable-energy-strategy-is-facing-resistance?traffic_source=rss"}],"rank":114,"trend":{"dod":null,"normal":null,"isNew":true}}]}