{"updated":"2026-06-20T16:05:58Z","model":"claude-haiku-4-5","thresholds":{"mag_min":4.5,"top_n":8},"countries":[{"code":"US","name_ja":"アメリカ","score":100,"level":5,"lat":37.077,"lon":-93.942,"components":{"conflict":1329.1,"protests":72.0,"news":0.0,"quakes":0.0},"counts":{"conflict":408,"protests":59,"news":0,"quakes":0},"top_events":[],"rank":1,"trend":{"dod":null,"normal":null,"isNew":true},"narrative_ja":"408件の紛争が記録されている。"},{"code":"IS","name_ja":"イスラエル","score":100,"level":5,"lat":31.567,"lon":34.679,"components":{"conflict":913.1,"protests":23.5,"news":0.0,"quakes":0.0},"counts":{"conflict":253,"protests":21,"news":0,"quakes":0},"top_events":[],"rank":2,"trend":{"dod":null,"normal":null,"isNew":true},"narrative_ja":"253件の紛争が記録されている。"},{"code":"IN","name_ja":"インド","score":100,"level":5,"lat":24.159,"lon":77.67,"components":{"conflict":553.9,"protests":70.1,"news":0.0,"quakes":0.0},"counts":{"conflict":151,"protests":53,"news":0,"quakes":0},"top_events":[],"rank":3,"trend":{"dod":null,"normal":null,"isNew":true},"narrative_ja":"151件の紛争が記録されている。"},{"code":"LE","name_ja":"レバノン","score":100,"level":5,"lat":33.724,"lon":35.668,"components":{"conflict":605.6,"protests":0.0,"news":11.2,"quakes":0.0},"counts":{"conflict":182,"protests":0,"news":8,"quakes":0},"top_events":[{"title":"米国特使がスイスに向かう、イスラエルのレバノン攻撃が和平協議を脅かす","place":"レバノン","url":"https://www.aljazeera.com/news/2026/6/20/us-envoy-headed-for-switzerland-israeli-strikes-on-lebanon-threaten-talks?traffic_source=rss"},{"title":"停戦にもかかわらずイスラエルのレバノン攻撃で複数人が殺害されたと報告","place":"レバノン","url":"https://www.bbc.com/news/articles/cx240k9l112o?at_medium=RSS&at_campaign=rss"},{"title":"イスラエルがレバノンへの爆撃を継続すればトランプの支持を失う可能性があるか","place":"レバノン","url":"https://www.france24.com/en/could-israel-lose-donald-trump-s-support-by-continuing-to-drop-bombs-in-lebanon"}],"rank":4,"trend":{"dod":null,"normal":null,"isNew":true},"narrative_ja":"182件の紛争とイスラエルによる攻撃に関する8件の報道が記録されている。"},{"code":"IR","name_ja":"イラン","score":100,"level":5,"lat":33.437,"lon":52.548,"components":{"conflict":321.0,"protests":43.6,"news":1.5,"quakes":0.0},"counts":{"conflict":101,"protests":33,"news":2,"quakes":0},"top_events":[{"title":"イランが米国のMOU公約違反時には「相互的行動」を警告","place":"イラン","url":"https://www.aljazeera.com/video/newsfeed/2026/6/20/iran-warns-of-reciprocal-action-if-us-doesnt-honour-mou-commitments?traffic_source=rss"},{"title":"イランの政治派閥は米国の平和合意にどう対応しているか","place":"イラン","url":"https://www.aljazeera.com/news/2026/6/20/where-do-irans-political-factions-stand-on-the-us-peace-deal?traffic_source=rss"}],"rank":5,"trend":{"dod":null,"normal":null,"isNew":true},"narrative_ja":"101件の紛争と米国との対立に関する2件の報道が記録されている。"},{"code":"UK","name_ja":"イギリス","score":100,"level":5,"lat":52.947,"lon":-2.131,"components":{"conflict":432.5,"protests":10.9,"news":0.0,"quakes":0.0},"counts":{"conflict":125,"protests":10,"news":0,"quakes":0},"top_events":[],"rank":6,"trend":{"dod":null,"normal":null,"isNew":true},"narrative_ja":"125件の紛争が記録されている。"},{"code":"RS","name_ja":"ロシア","score":98,"level":5,"lat":54.593,"lon":56.345,"components":{"conflict":333.6,"protests":10.0,"news":0.0,"quakes":0.0},"counts":{"conflict":84,"protests":9,"news":0,"quakes":0},"top_events":[],"rank":7,"trend":{"dod":null,"normal":null,"isNew":true},"narrative_ja":"84件の紛争が記録されている。"},{"code":"PK","name_ja":"パキスタン","score":88,"level":5,"lat":32.02,"lon":71.896,"components":{"conflict":280.4,"protests":25.4,"news":1.5,"quakes":0.0},"counts":{"conflict":69,"protests":17,"news":1,"quakes":0},"top_events":[{"title":"パキスタン北西部の路上爆弾で少なくとも7人が殺害","place":"パキスタン北西部","url":"https://www.aljazeera.com/news/2026/6/20/two-roadside-bombs-kill-at-least-seven-in-northwestern-pakistan?traffic_source=rss"}],"rank":8,"trend":{"dod":null,"normal":null,"isNew":true},"narrative_ja":"69件の紛争と路上爆弾による被害が報道されている。"},{"code":"UP","name_ja":"ウクライナ","score":86,"level":5,"lat":49.139,"lon":32.37,"components":{"conflict":298.4,"protests":2.4,"news":0.0,"quakes":0.0},"counts":{"conflict":84,"protests":2,"news":0,"quakes":0},"top_events":[],"rank":9,"trend":{"dod":null,"normal":null,"isNew":true}},{"code":"NI","name_ja":"ナイジェリア","score":81,"level":5,"lat":9.108,"lon":6.479,"components":{"conflict":275.0,"protests":7.6,"news":0.0,"quakes":0.0},"counts":{"conflict":79,"protests":7,"news":0,"quakes":0},"top_events":[],"rank":10,"trend":{"dod":null,"normal":null,"isNew":true}},{"code":"BG","name_ja":"バングラデシュ","score":34,"level":2,"lat":24.456,"lon":89.828,"components":{"conflict":43.9,"protests":74.9,"news":0.0,"quakes":0.0},"counts":{"conflict":9,"protests":38,"news":0,"quakes":0},"top_events":[],"rank":11,"trend":{"dod":null,"normal":null,"isNew":true}},{"code":"AF","name_ja":"アフガニスタン","score":34,"level":2,"lat":34.0,"lon":67.882,"components":{"conflict":118.4,"protests":0.0,"news":0.0,"quakes":0.0},"counts":{"conflict":26,"protests":0,"news":0,"quakes":0},"top_events":[],"rank":12,"trend":{"dod":null,"normal":null,"isNew":true}},{"code":"SF","name_ja":"南アフリカ","score":24,"level":2,"lat":-31.486,"lon":22.198,"components":{"conflict":65.8,"protests":16.4,"news":0.0,"quakes":0.0},"counts":{"conflict":15,"protests":17,"news":0,"quakes":0},"top_events":[],"rank":13,"trend":{"dod":null,"normal":null,"isNew":true}},{"code":"EI","name_ja":"アイルランド","score":23,"level":2,"lat":53.272,"lon":-6.955,"components":{"conflict":76.1,"protests":5.1,"news":0.0,"quakes":0.0},"counts":{"conflict":20,"protests":4,"news":0,"quakes":0},"top_events":[],"rank":14,"trend":{"dod":null,"normal":null,"isNew":true}},{"code":"SY","name_ja":"シリア","score":22,"level":2,"lat":35.295,"lon":37.762,"components":{"conflict":70.7,"protests":1.9,"news":3.0,"quakes":0.0},"counts":{"conflict":13,"protests":1,"news":2,"quakes":0},"top_events":[{"title":"シリアに拘束されていたドイツ人ジャーナリストが帰国、家族が明かす","place":"シリア","url":"https://www.aljazeera.com/news/2026/6/20/german-journalist-held-in-syria-back-home-family-says?traffic_source=rss"},{"title":"シリアで拘束されていたドイツ人ジャーナリストが帰国、弁護士が発表","place":"シリア","url":"https://www.dw.com/en/german-journalist-detained-in-syria-back-home-lawyer-says/a-77631412?maca=en-rss-en-world-4025-rdf"}],"rank":15,"trend":{"dod":null,"normal":null,"isNew":true}},{"code":"CA","name_ja":"カナダ","score":21,"level":2,"lat":47.466,"lon":-82.957,"components":{"conflict":65.5,"protests":8.2,"news":0.0,"quakes":0.0},"counts":{"conflict":18,"protests":7,"news":0,"quakes":0},"top_events":[],"rank":16,"trend":{"dod":null,"normal":null,"isNew":true}},{"code":"FR","name_ja":"フランス","score":19,"level":1,"lat":47.473,"lon":1.636,"components":{"conflict":48.1,"protests":18.3,"news":0.0,"quakes":0.0},"counts":{"conflict":19,"protests":14,"news":0,"quakes":0},"top_events":[],"rank":17,"trend":{"dod":null,"normal":null,"isNew":true}},{"code":"CH","name_ja":"中国","score":17,"level":1,"lat":35.487,"lon":106.158,"components":{"conflict":46.0,"protests":13.7,"news":0.0,"quakes":0.0},"counts":{"conflict":14,"protests":12,"news":0,"quakes":0},"top_events":[],"rank":18,"trend":{"dod":null,"normal":null,"isNew":true}},{"code":"AS","name_ja":"オーストラリア","score":17,"level":1,"lat":-32.411,"lon":141.4,"components":{"conflict":54.4,"protests":4.4,"news":1.4,"quakes":0.0},"counts":{"conflict":17,"protests":3,"news":1,"quakes":0},"top_events":[{"title":"オーストラリア、鳥インフルエンザH5N1確認後に対策を誓約","place":"オーストラリア","url":"https://www.aljazeera.com/news/2026/6/20/australia-pledges-action-on-h5n1-after-bird-flu-case-confirmed?traffic_source=rss"}],"rank":19,"trend":{"dod":null,"normal":null,"isNew":true}},{"code":"PL","name_ja":"ポーランド","score":15,"level":1,"lat":52.184,"lon":20.732,"components":{"conflict":47.1,"protests":3.4,"news":2.2,"quakes":0.0},"counts":{"conflict":17,"protests":4,"news":3,"quakes":0},"top_events":[{"title":"ウクライナ高官がWWII論争をめぐりポーランドの勲章を返納","place":"ウクライナ・ポーランド","url":"https://www.aljazeera.com/news/2026/6/20/top-ukrainian-officials-return-polish-awards-in-wwii-dispute?traffic_source=rss"},{"title":"ゼレンスキー大統領、ポーランドの最高勲章を剥奪 第2次世界大戦中の軍部隊名称めぐり","place":"ポーランド（ワルシャワ）","url":"https://www.bbc.com/news/articles/cr7xzg3dmj8o?at_medium=RSS&at_campaign=rss"},{"title":"ポーランド、第二次世界大戦の歴史問題巡りゼレンスキー大統領から国家最高勲章を剥奪","place":"ポーランド（ワルシャワ）","url":"https://www.france24.com/en/poland-strips-zelensky-of-top-state-honour-over-wwii-dispute"}],"rank":20,"trend":{"dod":null,"normal":null,"isNew":true}},{"code":"SZ","name_ja":"スイス","score":15,"level":1,"lat":47.075,"lon":8.081,"components":{"conflict":51.5,"protests":0.9,"news":1.5,"quakes":0.0},"counts":{"conflict":19,"protests":1,"news":1,"quakes":0},"top_events":[{"title":"米国とイランの停戦交渉がスイスで進行中","place":"スイス","url":"https://www.france24.com/en/us-iran-ceasefire-negociations-underway-in-switzerland"}],"rank":21,"trend":{"dod":null,"normal":null,"isNew":true}},{"code":"CO","name_ja":"コロンビア","score":15,"level":1,"lat":2.728,"lon":-76.409,"components":{"conflict":50.6,"protests":0.8,"news":0.8,"quakes":0.0},"counts":{"conflict":14,"protests":1,"news":1,"quakes":0},"top_events":[{"title":"コロンビア大統領決選投票に極右民兵組織の影","place":"コロンビア（ボゴタ）","url":"https://www.theguardian.com/world/2026/jun/20/colombia-presidential-election-paramilitary-militia-runoff"}],"rank":22,"trend":{"dod":null,"normal":null,"isNew":true}},{"code":"SO","name_ja":"ソマリア","score":15,"level":1,"lat":2.951,"lon":45.274,"components":{"conflict":53.0,"protests":0.0,"news":0.0,"quakes":0.0},"counts":{"conflict":9,"protests":0,"news":0,"quakes":0},"top_events":[],"rank":23,"trend":{"dod":null,"normal":null,"isNew":true}},{"code":"RP","name_ja":"フィリピン","score":13,"level":1,"lat":13.684,"lon":121.537,"components":{"conflict":33.9,"protests":12.8,"news":0.0,"quakes":0.0},"counts":{"conflict":9,"protests":15,"news":0,"quakes":0},"top_events":[],"rank":24,"trend":{"dod":null,"normal":null,"isNew":true}},{"code":"DR","name_ja":"ドミニカ共和国","score":13,"level":1,"lat":18.547,"lon":-69.309,"components":{"conflict":46.6,"protests":0.0,"news":0.0,"quakes":0.0},"counts":{"conflict":12,"protests":0,"news":0,"quakes":0},"top_events":[],"rank":25,"trend":{"dod":null,"normal":null,"isNew":true}},{"code":"IT","name_ja":"イタリア","score":9,"level":1,"lat":42.689,"lon":12.779,"components":{"conflict":25.9,"protests":5.0,"news":0.0,"quakes":0.0},"counts":{"conflict":10,"protests":5,"news":0,"quakes":0},"top_events":[],"rank":26,"trend":{"dod":null,"normal":null,"isNew":true}},{"code":"BL","name_ja":"ボリビア","score":9,"level":1,"lat":-16.557,"lon":-67.698,"components":{"conflict":12.2,"protests":15.9,"news":2.2,"quakes":0.0},"counts":{"conflict":2,"protests":10,"news":2,"quakes":0},"top_events":[{"title":"ボリビア大統領が非常事態宣言を発令","place":"ボリビア","url":"https://www.bbc.com/news/articles/cr47wn92zdgo?at_medium=RSS&at_campaign=rss"},{"title":"ボリビア、50日間の封鎖危機を受けて非常事態宣言を発令","place":"ボリビア","url":"https://www.france24.com/en/bolivia-declares-state-of-emergency-escalating-a-50-day-blockade-crisis"}],"rank":27,"trend":{"dod":null,"normal":null,"isNew":true}},{"code":"GM","name_ja":"ドイツ","score":9,"level":1,"lat":50.674,"lon":11.153,"components":{"conflict":24.8,"protests":5.2,"news":0.0,"quakes":0.0},"counts":{"conflict":6,"protests":5,"news":0,"quakes":0},"top_events":[],"rank":28,"trend":{"dod":null,"normal":null,"isNew":true}},{"code":"JA","name_ja":"日本","score":9,"level":1,"lat":35.291,"lon":138.001,"components":{"conflict":25.1,"protests":3.5,"news":0.0,"quakes":1.2},"counts":{"conflict":6,"protests":3,"news":0,"quakes":1},"top_events":[{"title":"M4.5 地震","place":"20 km SE of Nyūzen, Japan","url":"https://earthquake.usgs.gov/earthquakes/eventpage/us7000sunx"}],"rank":29,"trend":{"dod":null,"normal":null,"isNew":true}},{"code":"ID","name_ja":"インドネシア","score":8,"level":1,"lat":-5.643,"lon":110.901,"components":{"conflict":21.8,"protests":6.1,"news":0.0,"quakes":0.0},"counts":{"conflict":10,"protests":7,"news":0,"quakes":0},"top_events":[],"rank":30,"trend":{"dod":null,"normal":null,"isNew":true}},{"code":"NO","name_ja":"ノルウェー","score":8,"level":1,"lat":59.917,"lon":10.75,"components":{"conflict":26.9,"protests":0.0,"news":0.0,"quakes":0.0},"counts":{"conflict":5,"protests":0,"news":0,"quakes":0},"top_events":[],"rank":31,"trend":{"dod":null,"normal":null,"isNew":true}},{"code":"WE","name_ja":"ヨルダン川西岸","score":7,"level":1,"lat":31.842,"lon":35.21,"components":{"conflict":13.1,"protests":11.7,"news":0.0,"quakes":0.0},"counts":{"conflict":4,"protests":9,"news":0,"quakes":0},"top_events":[],"rank":32,"trend":{"dod":null,"normal":null,"isNew":true}},{"code":"CU","name_ja":"キューバ","score":7,"level":1,"lat":22.338,"lon":-80.327,"components":{"conflict":17.8,"protests":6.4,"news":0.0,"quakes":0.0},"counts":{"conflict":5,"protests":4,"news":0,"quakes":0},"top_events":[],"rank":33,"trend":{"dod":null,"normal":null,"isNew":true}},{"code":"QA","name_ja":"カタール","score":7,"level":1,"lat":25.477,"lon":51.281,"components":{"conflict":20.8,"protests":2.0,"news":0.0,"quakes":0.0},"counts":{"conflict":5,"protests":2,"news":0,"quakes":0},"top_events":[],"rank":34,"trend":{"dod":null,"normal":null,"isNew":true}},{"code":"KU","name_ja":"クウェート","score":7,"level":1,"lat":29.5,"lon":47.75,"components":{"conflict":22.8,"protests":0.0,"news":0.0,"quakes":0.0},"counts":{"conflict":5,"protests":0,"news":0,"quakes":0},"top_events":[],"rank":35,"trend":{"dod":null,"normal":null,"isNew":true}},{"code":"VE","name_ja":"ベネズエラ","score":6,"level":1,"lat":8.0,"lon":-66.0,"components":{"conflict":19.9,"protests":0.0,"news":0.0,"quakes":0.0},"counts":{"conflict":10,"protests":0,"news":0,"quakes":0},"top_events":[],"rank":36,"trend":{"dod":null,"normal":null,"isNew":true}},{"code":"SP","name_ja":"スペイン","score":6,"level":1,"lat":40.833,"lon":-1.893,"components":{"conflict":19.3,"protests":0.0,"news":0.8,"quakes":0.0},"counts":{"conflict":7,"protests":0,"news":1,"quakes":0},"top_events":[{"title":"スペイン首相の妻、汚職疑惑で出国禁止命令","place":"スペイン（マドリード）","url":"https://www.aljazeera.com/news/2026/6/20/court-bans-spanish-pms-wife-from-leaving-country-amid-corruption-probe?traffic_source=rss"}],"rank":37,"trend":{"dod":null,"normal":null,"isNew":true}},{"code":"VM","name_ja":"ベトナム","score":6,"level":1,"lat":12.228,"lon":106.805,"components":{"conflict":20.7,"protests":1.2,"news":0.0,"quakes":0.0},"counts":{"conflict":6,"protests":2,"news":0,"quakes":0},"top_events":[],"rank":38,"trend":{"dod":null,"normal":null,"isNew":true}},{"code":"SU","name_ja":"スーダン","score":6,"level":1,"lat":14.392,"lon":30.173,"components":{"conflict":20.3,"protests":0.0,"news":0.0,"quakes":0.0},"counts":{"conflict":8,"protests":0,"news":0,"quakes":0},"top_events":[],"rank":39,"trend":{"dod":null,"normal":null,"isNew":true}},{"code":"LT","name_ja":"レソト","score":6,"level":1,"lat":-29.808,"lon":27.816,"components":{"conflict":21.1,"protests":0.0,"news":0.0,"quakes":0.0},"counts":{"conflict":5,"protests":0,"news":0,"quakes":0},"top_events":[],"rank":40,"trend":{"dod":null,"normal":null,"isNew":true}},{"code":"NG","name_ja":"ニジェール","score":6,"level":1,"lat":14.125,"lon":3.559,"components":{"conflict":21.8,"protests":0.0,"news":0.0,"quakes":0.0},"counts":{"conflict":4,"protests":0,"news":0,"quakes":0},"top_events":[],"rank":41,"trend":{"dod":null,"normal":null,"isNew":true}},{"code":"BR","name_ja":"ブラジル","score":5,"level":1,"lat":-11.37,"lon":-40.11,"components":{"conflict":17.2,"protests":0.9,"news":0.0,"quakes":0.0},"counts":{"conflict":5,"protests":1,"news":0,"quakes":0},"top_events":[],"rank":42,"trend":{"dod":null,"normal":null,"isNew":true}},{"code":"BO","name_ja":"ベラルーシ","score":4,"level":1,"lat":53.549,"lon":27.736,"components":{"conflict":11.7,"protests":2.9,"news":0.0,"quakes":0.0},"counts":{"conflict":7,"protests":3,"news":0,"quakes":0},"top_events":[],"rank":43,"trend":{"dod":null,"normal":null,"isNew":true}},{"code":"NL","name_ja":"オランダ","score":4,"level":1,"lat":52.395,"lon":5.167,"components":{"conflict":11.0,"protests":3.8,"news":0.0,"quakes":0.0},"counts":{"conflict":4,"protests":4,"news":0,"quakes":0},"top_events":[],"rank":44,"trend":{"dod":null,"normal":null,"isNew":true}},{"code":"GR","name_ja":"ギリシャ","score":4,"level":1,"lat":39.291,"lon":22.107,"components":{"conflict":14.7,"protests":0.9,"news":0.0,"quakes":0.0},"counts":{"conflict":6,"protests":1,"news":0,"quakes":0},"top_events":[],"rank":45,"trend":{"dod":null,"normal":null,"isNew":true}},{"code":"JO","name_ja":"ヨルダン","score":4,"level":1,"lat":31.0,"lon":36.0,"components":{"conflict":15.1,"protests":0.0,"news":0.0,"quakes":0.0},"counts":{"conflict":7,"protests":0,"news":0,"quakes":0},"top_events":[],"rank":46,"trend":{"dod":null,"normal":null,"isNew":true}},{"code":"EG","name_ja":"エジプト","score":4,"level":1,"lat":29.373,"lon":30.973,"components":{"conflict":14.1,"protests":0.0,"news":0.0,"quakes":0.0},"counts":{"conflict":6,"protests":0,"news":0,"quakes":0},"top_events":[],"rank":47,"trend":{"dod":null,"normal":null,"isNew":true}},{"code":"TU","name_ja":"トルコ","score":4,"level":1,"lat":39.608,"lon":33.42,"components":{"conflict":11.3,"protests":3.6,"news":0.0,"quakes":0.0},"counts":{"conflict":3,"protests":3,"news":0,"quakes":0},"top_events":[],"rank":48,"trend":{"dod":null,"normal":null,"isNew":true}},{"code":"ET","name_ja":"エチオピア","score":4,"level":1,"lat":10.804,"lon":39.259,"components":{"conflict":10.4,"protests":3.7,"news":0.0,"quakes":0.0},"counts":{"conflict":4,"protests":2,"news":0,"quakes":0},"top_events":[],"rank":49,"trend":{"dod":null,"normal":null,"isNew":true}},{"code":"ZI","name_ja":"ジンバブエ","score":4,"level":1,"lat":-19.714,"lon":29.462,"components":{"conflict":14.3,"protests":0.0,"news":0.0,"quakes":0.0},"counts":{"conflict":5,"protests":0,"news":0,"quakes":0},"top_events":[],"rank":50,"trend":{"dod":null,"normal":null,"isNew":true}},{"code":"NZ","name_ja":"ニュージーランド","score":4,"level":1,"lat":-43.888,"lon":172.134,"components":{"conflict":15.6,"protests":0.0,"news":0.0,"quakes":0.0},"counts":{"conflict":5,"protests":0,"news":0,"quakes":0},"top_events":[],"rank":51,"trend":{"dod":null,"normal":null,"isNew":true}},{"code":"LY","name_ja":"リビア","score":4,"level":1,"lat":25.0,"lon":17.0,"components":{"conflict":12.7,"protests":0.0,"news":0.0,"quakes":0.0},"counts":{"conflict":3,"protests":0,"news":0,"quakes":0},"top_events":[],"rank":52,"trend":{"dod":null,"normal":null,"isNew":true}},{"code":"BC","name_ja":"ボツワナ","score":4,"level":1,"lat":-24.432,"lon":25.967,"components":{"conflict":14.4,"protests":1.2,"news":0.0,"quakes":0.0},"counts":{"conflict":2,"protests":1,"news":0,"quakes":0},"top_events":[],"rank":53,"trend":{"dod":null,"normal":null,"isNew":true}},{"code":"BE","name_ja":"ベルギー","score":3,"level":1,"lat":50.833,"lon":4.266,"components":{"conflict":7.9,"protests":3.5,"news":0.0,"quakes":0.0},"counts":{"conflict":2,"protests":6,"news":0,"quakes":0},"top_events":[],"rank":54,"trend":{"dod":null,"normal":null,"isNew":true}},{"code":"MU","name_ja":"オマーン","score":3,"level":1,"lat":25.0,"lon":58.0,"components":{"conflict":11.5,"protests":0.0,"news":0.0,"quakes":0.0},"counts":{"conflict":5,"protests":0,"news":0,"quakes":0},"top_events":[],"rank":55,"trend":{"dod":null,"normal":null,"isNew":true}},{"code":"BD","name_ja":"バミューダ","score":3,"level":1,"lat":32.333,"lon":-64.75,"components":{"conflict":10.2,"protests":0.0,"news":0.0,"quakes":0.0},"counts":{"conflict":3,"protests":0,"news":0,"quakes":0},"top_events":[],"rank":56,"trend":{"dod":null,"normal":null,"isNew":true}},{"code":"GZ","name_ja":"GZ","score":3,"level":1,"lat":31.467,"lon":34.415,"components":{"conflict":11.0,"protests":0.0,"news":0.0,"quakes":0.0},"counts":{"conflict":3,"protests":0,"news":0,"quakes":0},"top_events":[],"rank":57,"trend":{"dod":null,"normal":null,"isNew":true}},{"code":"MX","name_ja":"メキシコ","score":3,"level":1,"lat":21.496,"lon":-99.249,"components":{"conflict":6.5,"protests":2.6,"news":0.0,"quakes":0.0},"counts":{"conflict":2,"protests":1,"news":0,"quakes":0},"top_events":[],"rank":58,"trend":{"dod":null,"normal":null,"isNew":true}},{"code":"ML","name_ja":"マリ","score":3,"level":1,"lat":17.0,"lon":-4.0,"components":{"conflict":11.4,"protests":0.0,"news":0.0,"quakes":0.0},"counts":{"conflict":3,"protests":0,"news":0,"quakes":0},"top_events":[],"rank":59,"trend":{"dod":null,"normal":null,"isNew":true}},{"code":"PO","name_ja":"ポルトガル","score":3,"level":1,"lat":39.5,"lon":-8.0,"components":{"conflict":8.9,"protests":0.0,"news":0.0,"quakes":0.0},"counts":{"conflict":3,"protests":0,"news":0,"quakes":0},"top_events":[],"rank":60,"trend":{"dod":null,"normal":null,"isNew":true}},{"code":"JE","name_ja":"JE","score":3,"level":1,"lat":49.217,"lon":-2.117,"components":{"conflict":10.6,"protests":0.0,"news":0.0,"quakes":0.0},"counts":{"conflict":2,"protests":0,"news":0,"quakes":0},"top_events":[],"rank":61,"trend":{"dod":null,"normal":null,"isNew":true}},{"code":"HK","name_ja":"香港","score":3,"level":1,"lat":22.335,"lon":114.142,"components":{"conflict":7.2,"protests":2.2,"news":0.0,"quakes":0.0},"counts":{"conflict":1,"protests":1,"news":0,"quakes":0},"top_events":[],"rank":62,"trend":{"dod":null,"normal":null,"isNew":true}},{"code":"AR","name_ja":"アルゼンチン","score":2,"level":1,"lat":-33.107,"lon":-59.594,"components":{"conflict":7.2,"protests":0.0,"news":0.0,"quakes":1.2},"counts":{"conflict":4,"protests":0,"news":0,"quakes":1},"top_events":[{"title":"M4.5 地震","place":"60 km WNW of Abra Pampa, Argentina","url":"https://earthquake.usgs.gov/earthquakes/eventpage/us7000suru"}],"rank":63,"trend":{"dod":null,"normal":null,"isNew":true}},{"code":"AU","name_ja":"オーストリア","score":2,"level":1,"lat":47.333,"lon":13.333,"components":{"conflict":8.2,"protests":0.0,"news":0.0,"quakes":0.0},"counts":{"conflict":4,"protests":0,"news":0,"quakes":0},"top_events":[],"rank":64,"trend":{"dod":null,"normal":null,"isNew":true}},{"code":"BN","name_ja":"ベナン","score":2,"level":1,"lat":9.5,"lon":2.25,"components":{"conflict":8.3,"protests":0.0,"news":0.0,"quakes":0.0},"counts":{"conflict":3,"protests":0,"news":0,"quakes":0},"top_events":[],"rank":65,"trend":{"dod":null,"normal":null,"isNew":true}},{"code":"GH","name_ja":"ガーナ","score":2,"level":1,"lat":6.707,"lon":-0.147,"components":{"conflict":4.0,"protests":2.1,"news":0.0,"quakes":0.0},"counts":{"conflict":1,"protests":2,"news":0,"quakes":0},"top_events":[],"rank":66,"trend":{"dod":null,"normal":null,"isNew":true}},{"code":"AG","name_ja":"アルジェリア","score":2,"level":1,"lat":28.0,"lon":3.0,"components":{"conflict":4.1,"protests":3.5,"news":0.0,"quakes":0.0},"counts":{"conflict":1,"protests":2,"news":0,"quakes":0},"top_events":[],"rank":67,"trend":{"dod":null,"normal":null,"isNew":true}},{"code":"CF","name_ja":"コンゴ共和国","score":2,"level":1,"lat":-1.0,"lon":15.0,"components":{"conflict":8.2,"protests":0.0,"news":0.0,"quakes":0.0},"counts":{"conflict":3,"protests":0,"news":0,"quakes":0},"top_events":[],"rank":68,"trend":{"dod":null,"normal":null,"isNew":true}},{"code":"DJ","name_ja":"ジブチ","score":2,"level":1,"lat":19.0,"lon":39.5,"components":{"conflict":6.6,"protests":0.0,"news":0.0,"quakes":0.0},"counts":{"conflict":2,"protests":0,"news":0,"quakes":0},"top_events":[],"rank":69,"trend":{"dod":null,"normal":null,"isNew":true}},{"code":"KE","name_ja":"ケニア","score":2,"level":1,"lat":0.118,"lon":35.953,"components":{"conflict":6.8,"protests":0.0,"news":0.0,"quakes":0.0},"counts":{"conflict":2,"protests":0,"news":0,"quakes":0},"top_events":[],"rank":70,"trend":{"dod":null,"normal":null,"isNew":true}},{"code":"CG","name_ja":"コンゴ民主共和国","score":2,"level":1,"lat":-0.502,"lon":24.597,"components":{"conflict":7.0,"protests":0.0,"news":1.5,"quakes":0.0},"counts":{"conflict":1,"protests":0,"news":1,"quakes":0},"top_events":[{"title":"コンゴ民主共和国でエボラ治療センターに家族が押し入り、患者を連れ去る","place":"コンゴ民主共和国","url":"https://www.aljazeera.com/video/newsfeed/2026/6/20/families-storm-ebola-treatment-centre-in-drc-remove-patients?traffic_source=rss"}],"rank":71,"trend":{"dod":null,"normal":null,"isNew":true}},{"code":"BH","name_ja":"ベリーズ","score":2,"level":1,"lat":16.155,"lon":-82.06,"components":{"conflict":8.7,"protests":0.0,"news":0.0,"quakes":0.0},"counts":{"conflict":2,"protests":0,"news":0,"quakes":0},"top_events":[],"rank":72,"trend":{"dod":null,"normal":null,"isNew":true}},{"code":"CI","name_ja":"チリ","score":2,"level":1,"lat":-28.049,"lon":-70.557,"components":{"conflict":4.1,"protests":0.0,"news":0.0,"quakes":1.4},"counts":{"conflict":1,"protests":0,"news":0,"quakes":1},"top_events":[{"title":"M4.7 地震","place":"76 km W of Ollagüe, Chile","url":"https://earthquake.usgs.gov/earthquakes/eventpage/us7000suq2"}],"rank":73,"trend":{"dod":null,"normal":null,"isNew":true}},{"code":"HO","name_ja":"ホンジュラス","score":2,"level":1,"lat":15.0,"lon":-86.5,"components":{"conflict":6.7,"protests":0.0,"news":0.0,"quakes":0.0},"counts":{"conflict":1,"protests":0,"news":0,"quakes":0},"top_events":[],"rank":74,"trend":{"dod":null,"normal":null,"isNew":true}},{"code":"MI","name_ja":"マラウイ","score":2,"level":1,"lat":-13.5,"lon":34.0,"components":{"conflict":6.8,"protests":0.0,"news":0.0,"quakes":0.0},"counts":{"conflict":1,"protests":0,"news":0,"quakes":0},"top_events":[],"rank":75,"trend":{"dod":null,"normal":null,"isNew":true}},{"code":"UG","name_ja":"ウガンダ","score":2,"level":1,"lat":0.741,"lon":30.042,"components":{"conflict":8.3,"protests":0.0,"news":0.0,"quakes":0.0},"counts":{"conflict":1,"protests":0,"news":0,"quakes":0},"top_events":[],"rank":76,"trend":{"dod":null,"normal":null,"isNew":true}},{"code":"NU","name_ja":"ニカラグア","score":2,"level":1,"lat":13.0,"lon":-85.0,"components":{"conflict":5.8,"protests":0.0,"news":0.0,"quakes":0.0},"counts":{"conflict":1,"protests":0,"news":0,"quakes":0},"top_events":[],"rank":77,"trend":{"dod":null,"normal":null,"isNew":true}},{"code":"AJ","name_ja":"アゼルバイジャン","score":2,"level":1,"lat":40.395,"lon":49.882,"components":{"conflict":8.1,"protests":0.0,"news":0.0,"quakes":0.0},"counts":{"conflict":1,"protests":0,"news":0,"quakes":0},"top_events":[],"rank":78,"trend":{"dod":null,"normal":null,"isNew":true}},{"code":"LU","name_ja":"ルクセンブルク","score":1,"level":1,"lat":49.75,"lon":6.167,"components":{"conflict":0.0,"protests":2.9,"news":0.0,"quakes":0.0},"counts":{"conflict":0,"protests":4,"news":0,"quakes":0},"top_events":[],"rank":79,"trend":{"dod":null,"normal":null,"isNew":true}},{"code":"JM","name_ja":"ジャマイカ","score":1,"level":1,"lat":18.471,"lon":-77.919,"components":{"conflict":0.0,"protests":4.0,"news":0.0,"quakes":0.0},"counts":{"conflict":0,"protests":4,"news":0,"quakes":0},"top_events":[],"rank":80,"trend":{"dod":null,"normal":null,"isNew":true}},{"code":"ER","name_ja":"エリトリア","score":1,"level":1,"lat":15.166,"lon":38.967,"components":{"conflict":2.0,"protests":1.6,"news":0.0,"quakes":0.0},"counts":{"conflict":1,"protests":2,"news":0,"quakes":0},"top_events":[],"rank":81,"trend":{"dod":null,"normal":null,"isNew":true}},{"code":"AL","name_ja":"アルバニア","score":1,"level":1,"lat":41.328,"lon":19.819,"components":{"conflict":0.0,"protests":3.6,"news":0.0,"quakes":0.0},"counts":{"conflict":0,"protests":3,"news":0,"quakes":0},"top_events":[],"rank":82,"trend":{"dod":null,"normal":null,"isNew":true}},{"code":"EC","name_ja":"エクアドル","score":1,"level":1,"lat":-2.167,"lon":-79.9,"components":{"conflict":0.0,"protests":3.2,"news":0.0,"quakes":0.0},"counts":{"conflict":0,"protests":3,"news":0,"quakes":0},"top_events":[],"rank":83,"trend":{"dod":null,"normal":null,"isNew":true}},{"code":"CY","name_ja":"キプロス","score":1,"level":1,"lat":35.016,"lon":33.022,"components":{"conflict":2.7,"protests":0.0,"news":0.0,"quakes":0.0},"counts":{"conflict":2,"protests":0,"news":0,"quakes":0},"top_events":[],"rank":84,"trend":{"dod":null,"normal":null,"isNew":true}},{"code":"FG","name_ja":"仏領ギアナ","score":1,"level":1,"lat":5.155,"lon":-52.648,"components":{"conflict":4.3,"protests":0.0,"news":0.0,"quakes":0.0},"counts":{"conflict":2,"protests":0,"news":0,"quakes":0},"top_events":[],"rank":85,"trend":{"dod":null,"normal":null,"isNew":true}},{"code":"ZA","name_ja":"ザンビア","score":1,"level":1,"lat":-15.0,"lon":30.0,"components":{"conflict":4.3,"protests":0.0,"news":0.0,"quakes":0.0},"counts":{"conflict":2,"protests":0,"news":0,"quakes":0},"top_events":[],"rank":86,"trend":{"dod":null,"normal":null,"isNew":true}},{"code":"SA","name_ja":"サウジアラビア","score":1,"level":1,"lat":24.837,"lon":45.804,"components":{"conflict":1.7,"protests":1.2,"news":0.0,"quakes":0.0},"counts":{"conflict":1,"protests":1,"news":0,"quakes":0},"top_events":[],"rank":87,"trend":{"dod":null,"normal":null,"isNew":true}},{"code":"DA","name_ja":"デンマーク","score":1,"level":1,"lat":55.779,"lon":11.762,"components":{"conflict":1.4,"protests":2.4,"news":0.0,"quakes":0.0},"counts":{"conflict":1,"protests":1,"news":0,"quakes":0},"top_events":[],"rank":88,"trend":{"dod":null,"normal":null,"isNew":true}},{"code":"FJ","name_ja":"フィジー","score":1,"level":1,"lat":-18.0,"lon":178.0,"components":{"conflict":4.6,"protests":0.0,"news":0.0,"quakes":0.0},"counts":{"conflict":2,"protests":0,"news":0,"quakes":0},"top_events":[],"rank":89,"trend":{"dod":null,"normal":null,"isNew":true}},{"code":"SW","name_ja":"スウェーデン","score":1,"level":1,"lat":60.1,"lon":17.173,"components":{"conflict":0.0,"protests":1.8,"news":0.0,"quakes":0.0},"counts":{"conflict":0,"protests":2,"news":0,"quakes":0},"top_events":[],"rank":90,"trend":{"dod":null,"normal":null,"isNew":true}},{"code":"FI","name_ja":"フィンランド","score":1,"level":1,"lat":60.158,"lon":24.873,"components":{"conflict":5.0,"protests":0.0,"news":0.0,"quakes":0.0},"counts":{"conflict":1,"protests":0,"news":0,"quakes":0},"top_events":[],"rank":91,"trend":{"dod":null,"normal":null,"isNew":true}},{"code":"CD","name_ja":"チャド","score":1,"level":1,"lat":15.0,"lon":19.0,"components":{"conflict":2.7,"protests":0.0,"news":0.0,"quakes":0.0},"counts":{"conflict":1,"protests":0,"news":0,"quakes":0},"top_events":[],"rank":92,"trend":{"dod":null,"normal":null,"isNew":true}},{"code":"TS","name_ja":"チュニジア","score":1,"level":1,"lat":34.299,"lon":10.07,"components":{"conflict":3.7,"protests":0.0,"news":0.0,"quakes":0.0},"counts":{"conflict":1,"protests":0,"news":0,"quakes":0},"top_events":[],"rank":93,"trend":{"dod":null,"normal":null,"isNew":true}},{"code":"IZ","name_ja":"イラク","score":1,"level":1,"lat":33.0,"lon":44.0,"components":{"conflict":4.1,"protests":0.0,"news":0.0,"quakes":0.0},"counts":{"conflict":1,"protests":0,"news":0,"quakes":0},"top_events":[],"rank":94,"trend":{"dod":null,"normal":null,"isNew":true}},{"code":"CJ","name_ja":"ケイマン諸島","score":1,"level":1,"lat":19.5,"lon":-80.667,"components":{"conflict":3.4,"protests":0.0,"news":0.0,"quakes":0.0},"counts":{"conflict":1,"protests":0,"news":0,"quakes":0},"top_events":[],"rank":95,"trend":{"dod":null,"normal":null,"isNew":true}},{"code":"KS","name_ja":"韓国","score":1,"level":1,"lat":37.566,"lon":127.0,"components":{"conflict":4.0,"protests":0.0,"news":0.0,"quakes":0.0},"counts":{"conflict":1,"protests":0,"news":0,"quakes":0},"top_events":[],"rank":96,"trend":{"dod":null,"normal":null,"isNew":true}},{"code":"SN","name_ja":"シンガポール","score":1,"level":1,"lat":1.367,"lon":103.8,"components":{"conflict":3.8,"protests":0.0,"news":0.0,"quakes":0.0},"counts":{"conflict":1,"protests":0,"news":0,"quakes":0},"top_events":[],"rank":97,"trend":{"dod":null,"normal":null,"isNew":true}},{"code":"YM","name_ja":"イエメン","score":1,"level":1,"lat":15.355,"lon":44.207,"components":{"conflict":2.5,"protests":0.0,"news":0.0,"quakes":0.0},"counts":{"conflict":1,"protests":0,"news":0,"quakes":0},"top_events":[],"rank":98,"trend":{"dod":null,"normal":null,"isNew":true}},{"code":"MZ","name_ja":"モザンビーク","score":1,"level":1,"lat":-18.25,"lon":35.0,"components":{"conflict":2.4,"protests":0.0,"news":0.0,"quakes":0.0},"counts":{"conflict":1,"protests":0,"news":0,"quakes":0},"top_events":[],"rank":99,"trend":{"dod":null,"normal":null,"isNew":true}},{"code":"KN","name_ja":"北朝鮮","score":1,"level":1,"lat":40.0,"lon":127.0,"components":{"conflict":4.1,"protests":0.0,"news":0.0,"quakes":0.0},"counts":{"conflict":1,"protests":0,"news":0,"quakes":0},"top_events":[],"rank":100,"trend":{"dod":null,"normal":null,"isNew":true}},{"code":"WS","name_ja":"サモア","score":1,"level":1,"lat":-13.803,"lon":-172.178,"components":{"conflict":3.6,"protests":0.0,"news":0.0,"quakes":0.0},"counts":{"conflict":1,"protests":0,"news":0,"quakes":0},"top_events":[],"rank":101,"trend":{"dod":null,"normal":null,"isNew":true}},{"code":"TZ","name_ja":"タンザニア","score":1,"level":1,"lat":-6.8,"lon":39.283,"components":{"conflict":0.0,"protests":1.9,"news":0.0,"quakes":0.0},"counts":{"conflict":0,"protests":1,"news":0,"quakes":0},"top_events":[],"rank":102,"trend":{"dod":null,"normal":null,"isNew":true}},{"code":"TX","name_ja":"トルクメニスタン","score":1,"level":1,"lat":37.618,"lon":62.167,"components":{"conflict":0.0,"protests":2.5,"news":0.0,"quakes":0.0},"counts":{"conflict":0,"protests":1,"news":0,"quakes":0},"top_events":[],"rank":103,"trend":{"dod":null,"normal":null,"isNew":true}},{"code":"GI","name_ja":"ジブラルタル","score":0,"level":1,"lat":36.133,"lon":-5.35,"components":{"conflict":0.0,"protests":1.4,"news":0.0,"quakes":0.0},"counts":{"conflict":0,"protests":2,"news":0,"quakes":0},"top_events":[],"rank":104,"trend":{"dod":null,"normal":null,"isNew":true}},{"code":"HA","name_ja":"ハイチ","score":0,"level":1,"lat":19.0,"lon":-72.417,"components":{"conflict":0.0,"protests":1.1,"news":0.0,"quakes":0.0},"counts":{"conflict":0,"protests":2,"news":0,"quakes":0},"top_events":[],"rank":105,"trend":{"dod":null,"normal":null,"isNew":true}},{"code":"RO","name_ja":"ルーマニア","score":0,"level":1,"lat":44.433,"lon":26.1,"components":{"conflict":0.0,"protests":1.4,"news":0.0,"quakes":0.0},"counts":{"conflict":0,"protests":2,"news":0,"quakes":0},"top_events":[],"rank":106,"trend":{"dod":null,"normal":null,"isNew":true}},{"code":"BF","name_ja":"バハマ","score":0,"level":1,"lat":25.083,"lon":-77.35,"components":{"conflict":0.0,"protests":1.5,"news":0.0,"quakes":0.0},"counts":{"conflict":0,"protests":2,"news":0,"quakes":0},"top_events":[],"rank":107,"trend":{"dod":null,"normal":null,"isNew":true}},{"code":"CS","name_ja":"コスタリカ","score":0,"level":1,"lat":10.0,"lon":-84.0,"components":{"conflict":0.9,"protests":0.0,"news":0.0,"quakes":0.0},"counts":{"conflict":1,"protests":0,"news":0,"quakes":0},"top_events":[],"rank":108,"trend":{"dod":null,"normal":null,"isNew":true}},{"code":"PE","name_ja":"ペルー","score":0,"level":1,"lat":-10.0,"lon":-76.0,"components":{"conflict":0.9,"protests":0.0,"news":0.0,"quakes":0.0},"counts":{"conflict":1,"protests":0,"news":0,"quakes":0},"top_events":[],"rank":109,"trend":{"dod":null,"normal":null,"isNew":true}},{"code":"TH","name_ja":"タイ","score":0,"level":1,"lat":15.0,"lon":100.0,"components":{"conflict":0.9,"protests":0.0,"news":0.0,"quakes":0.0},"counts":{"conflict":1,"protests":0,"news":0,"quakes":0},"top_events":[],"rank":110,"trend":{"dod":null,"normal":null,"isNew":true}},{"code":"MO","name_ja":"モロッコ","score":0,"level":1,"lat":33.59,"lon":-7.61,"components":{"conflict":0.0,"protests":1.5,"news":0.0,"quakes":0.0},"counts":{"conflict":0,"protests":1,"news":0,"quakes":0},"top_events":[],"rank":111,"trend":{"dod":null,"normal":null,"isNew":true}},{"code":"CB","name_ja":"カンボジア","score":0,"level":1,"lat":13.0,"lon":105.0,"components":{"conflict":0.0,"protests":0.9,"news":0.0,"quakes":0.0},"counts":{"conflict":0,"protests":1,"news":0,"quakes":0},"top_events":[],"rank":112,"trend":{"dod":null,"normal":null,"isNew":true}},{"code":"IC","name_ja":"アイスランド","score":0,"level":1,"lat":65.0,"lon":-18.0,"components":{"conflict":0.0,"protests":0.5,"news":0.0,"quakes":0.0},"counts":{"conflict":0,"protests":1,"news":0,"quakes":0},"top_events":[],"rank":113,"trend":{"dod":null,"normal":null,"isNew":true}},{"code":"CE","name_ja":"スリランカ","score":0,"level":1,"lat":8.751,"lon":80.497,"components":{"conflict":0.0,"protests":1.2,"news":0.0,"quakes":0.0},"counts":{"conflict":0,"protests":1,"news":0,"quakes":0},"top_events":[],"rank":114,"trend":{"dod":null,"normal":null,"isNew":true}},{"code":"KZ","name_ja":"カザフスタン","score":0,"level":1,"lat":48.0,"lon":68.0,"components":{"conflict":0.0,"protests":0.7,"news":0.0,"quakes":0.0},"counts":{"conflict":0,"protests":1,"news":0,"quakes":0},"top_events":[],"rank":115,"trend":{"dod":null,"normal":null,"isNew":true}},{"code":"PP","name_ja":"パプアニューギニア","score":0,"level":1,"lat":-5.67,"lon":148.524,"components":{"conflict":0.0,"protests":0.0,"news":0.0,"quakes":1.3},"counts":{"conflict":0,"protests":0,"news":0,"quakes":1},"top_events":[{"title":"M4.6 地震","place":"123 km NE of Finschhafen, Papua New Guinea","url":"https://earthquake.usgs.gov/earthquakes/eventpage/us7000sumw"}],"rank":116,"trend":{"dod":null,"normal":null,"isNew":true}}]}