{"updated":"2026-06-20T17:59:19Z","model":"claude-haiku-4-5","thresholds":{"mag_min":4.5,"top_n":8},"countries":[{"code":"US","name_ja":"アメリカ","score":100,"level":5,"lat":36.743,"lon":-92.381,"components":{"conflict":1458.2,"protests":57.1,"news":0.0,"quakes":0.0},"counts":{"conflict":445,"protests":48,"news":0,"quakes":0},"top_events":[],"rank":1,"trend":{"dod":null,"normal":{"deltaPct":0,"dir":"flat"},"isNew":false},"narrative_ja":"445件の紛争が記録されている"},{"code":"IS","name_ja":"イスラエル","score":100,"level":5,"lat":31.609,"lon":34.739,"components":{"conflict":924.1,"protests":21.9,"news":0.0,"quakes":0.0},"counts":{"conflict":253,"protests":19,"news":0,"quakes":0},"top_events":[],"rank":2,"trend":{"dod":null,"normal":{"deltaPct":0,"dir":"flat"},"isNew":false},"narrative_ja":"253件の紛争が記録されている"},{"code":"IN","name_ja":"インド","score":100,"level":5,"lat":24.317,"lon":77.965,"components":{"conflict":595.2,"protests":72.7,"news":0.4,"quakes":0.0},"counts":{"conflict":161,"protests":55,"news":1,"quakes":0},"top_events":[{"title":"ILO条約30周年、インドの家内労働者が同等の権利を要求","place":"インド","url":"https://www.aljazeera.com/news/2026/6/20/as-ilo-convention-turns-30-indias-home-based-workers-demand-equal-rights?traffic_source=rss"}],"rank":3,"trend":{"dod":null,"normal":{"deltaPct":0,"dir":"flat"},"isNew":false},"narrative_ja":"161件の紛争と55件の抗議が記録されている"},{"code":"LE","name_ja":"レバノン","score":100,"level":5,"lat":33.679,"lon":35.652,"components":{"conflict":545.1,"protests":2.6,"news":10.5,"quakes":0.0},"counts":{"conflict":168,"protests":2,"news":7,"quakes":0},"top_events":[{"title":"停戦にもかかわらずイスラエルのレバノン攻撃で複数人が殺害されたと報告","place":"レバノン","url":"https://www.bbc.com/news/articles/cx240k9l112o?at_medium=RSS&at_campaign=rss"},{"title":"BBC、イスラエル占領下の南レバノンの破壊された村々を確認","place":"南レバノン","url":"https://www.bbc.com/news/videos/c8r2pyv3e2po?at_medium=RSS&at_campaign=rss"},{"title":"イスラエルとヒズボラが致命的な衝突後に停戦を更新、イラン協議の開始を中断","place":"レバノン・イスラエル国境地域","url":"https://www.theguardian.com/world/2026/jun/19/israel-hezbollah-renew-ceasefire-lebanon-us-iran-agreement"}],"rank":4,"trend":{"dod":null,"normal":{"deltaPct":0,"dir":"flat"},"isNew":false},"narrative_ja":"168件の紛争と7件の報道事案があり、イスラエルとヒズボラの衝突が継続している"},{"code":"UK","name_ja":"イギリス","score":100,"level":5,"lat":52.946,"lon":-2.242,"components":{"conflict":397.1,"protests":16.2,"news":0.0,"quakes":0.0},"counts":{"conflict":120,"protests":12,"news":0,"quakes":0},"top_events":[],"rank":5,"trend":{"dod":null,"normal":{"deltaPct":0,"dir":"flat"},"isNew":false},"narrative_ja":"120件の紛争が記録されている"},{"code":"RS","name_ja":"ロシア","score":100,"level":5,"lat":54.338,"lon":56.371,"components":{"conflict":339.8,"protests":8.3,"news":1.5,"quakes":0.0},"counts":{"conflict":87,"protests":8,"news":1,"quakes":0},"top_events":[{"title":"スティーブ・ローゼンバーグ：モスクワの石油精製所への攻撃がロシアのウクライナとの戦争を国内に近づける","place":"モスクワ、ロシア","url":"https://www.bbc.com/news/articles/cp3xqkxp3x5o?at_medium=RSS&at_campaign=rss"}],"rank":6,"trend":{"dod":null,"normal":{"deltaPct":0,"dir":"flat"},"isNew":false},"narrative_ja":"87件の紛争と1件の報道事案があり、ウクライナとの戦争が国内に影響を及ぼしている"},{"code":"IR","name_ja":"イラン","score":99,"level":5,"lat":33.54,"lon":52.505,"components":{"conflict":288.0,"protests":51.8,"news":3.0,"quakes":0.0},"counts":{"conflict":91,"protests":35,"news":3,"quakes":0},"top_events":[{"title":"イランが米国のMOU公約違反時には「相互的行動」を警告","place":"イラン","url":"https://www.aljazeera.com/video/newsfeed/2026/6/20/iran-warns-of-reciprocal-action-if-us-doesnt-honour-mou-commitments?traffic_source=rss"},{"title":"イランの政治派閥は米国の平和協定についてどのような立場をとっているのか","place":"イラン","url":"https://www.aljazeera.com/news/2026/6/20/where-do-irans-political-factions-stand-on-the-us-peace-deal?traffic_source=rss"},{"title":"イランの新指導部は110日間の戦争からどのような教訓を引き出すのか","place":"イラン","url":"https://www.theguardian.com/world/2026/jun/20/what-lessons-will-irans-new-leadership-draw-from-the-110-day-war"}],"rank":7,"trend":{"dod":null,"normal":{"deltaPct":1,"dir":"flat"},"isNew":false},"narrative_ja":"91件の紛争、35件の抗議、3件の報道事案があり、米国との協定問題と政治派閥の対立がある"},{"code":"PK","name_ja":"パキスタン","score":86,"level":5,"lat":32.149,"lon":71.899,"components":{"conflict":270.4,"protests":25.4,"news":0.0,"quakes":0.0},"counts":{"conflict":66,"protests":17,"news":0,"quakes":0},"top_events":[],"rank":8,"trend":{"dod":null,"normal":{"deltaPct":6,"dir":"flat"},"isNew":false},"narrative_ja":"66件の紛争と17件の抗議が記録されている"},{"code":"UP","name_ja":"ウクライナ","score":80,"level":5,"lat":49.13,"lon":32.478,"components":{"conflict":274.7,"protests":2.8,"news":0.0,"quakes":0.0},"counts":{"conflict":84,"protests":3,"news":0,"quakes":0},"top_events":[],"rank":9,"trend":{"dod":null,"normal":{"deltaPct":-20,"dir":"down"},"isNew":false}},{"code":"NI","name_ja":"ナイジェリア","score":57,"level":3,"lat":9.242,"lon":5.935,"components":{"conflict":189.3,"protests":6.5,"news":0.0,"quakes":0.0},"counts":{"conflict":56,"protests":6,"news":0,"quakes":0},"top_events":[],"rank":10,"trend":{"dod":null,"normal":{"deltaPct":-40,"dir":"down"},"isNew":false}},{"code":"AF","name_ja":"アフガニスタン","score":34,"level":2,"lat":34.0,"lon":67.882,"components":{"conflict":118.4,"protests":0.0,"news":0.0,"quakes":0.0},"counts":{"conflict":26,"protests":0,"news":0,"quakes":0},"top_events":[],"rank":11,"trend":{"dod":null,"normal":{"deltaPct":-6,"dir":"flat"},"isNew":false}},{"code":"BG","name_ja":"バングラデシュ","score":29,"level":2,"lat":24.491,"lon":89.818,"components":{"conflict":43.9,"protests":57.8,"news":0.0,"quakes":0.0},"counts":{"conflict":9,"protests":31,"news":0,"quakes":0},"top_events":[],"rank":12,"trend":{"dod":null,"normal":{"deltaPct":-42,"dir":"down"},"isNew":false}},{"code":"SF","name_ja":"南アフリカ","score":27,"level":2,"lat":-31.302,"lon":23.176,"components":{"conflict":76.6,"protests":16.4,"news":0.0,"quakes":0.0},"counts":{"conflict":17,"protests":17,"news":0,"quakes":0},"top_events":[],"rank":13,"trend":{"dod":null,"normal":{"deltaPct":108,"dir":"up"},"isNew":false}},{"code":"CA","name_ja":"カナダ","score":26,"level":2,"lat":46.661,"lon":-81.627,"components":{"conflict":82.7,"protests":6.6,"news":0.0,"quakes":0.0},"counts":{"conflict":21,"protests":5,"news":0,"quakes":0},"top_events":[],"rank":14,"trend":{"dod":null,"normal":{"deltaPct":44,"dir":"up"},"isNew":false}},{"code":"SY","name_ja":"シリア","score":22,"level":2,"lat":35.194,"lon":37.638,"components":{"conflict":75.6,"protests":1.9,"news":0.0,"quakes":0.0},"counts":{"conflict":15,"protests":1,"news":0,"quakes":0},"top_events":[],"rank":15,"trend":{"dod":null,"normal":{"deltaPct":69,"dir":"up"},"isNew":false}},{"code":"FR","name_ja":"フランス","score":21,"level":2,"lat":47.575,"lon":1.487,"components":{"conflict":52.4,"protests":21.3,"news":0.0,"quakes":0.0},"counts":{"conflict":20,"protests":17,"news":0,"quakes":0},"top_events":[],"rank":16,"trend":{"dod":null,"normal":{"deltaPct":-9,"dir":"flat"},"isNew":false}},{"code":"EI","name_ja":"アイルランド","score":21,"level":2,"lat":53.261,"lon":-7.031,"components":{"conflict":68.1,"protests":5.1,"news":0.0,"quakes":0.0},"counts":{"conflict":18,"protests":4,"news":0,"quakes":0},"top_events":[],"rank":17,"trend":{"dod":null,"normal":{"deltaPct":-12,"dir":"flat"},"isNew":false}},{"code":"AS","name_ja":"オーストラリア","score":18,"level":1,"lat":-32.067,"lon":140.99,"components":{"conflict":57.8,"protests":3.7,"news":0.3,"quakes":0.0},"counts":{"conflict":20,"protests":2,"news":1,"quakes":0},"top_events":[{"title":"オーストラリアがH5N1鳥インフルエンザの初感染を確認、ウイルスがすべての大陸に拡大","place":"オーストラリア","url":"https://www.bbc.com/news/articles/c4gykxklvl5o?at_medium=RSS&at_campaign=rss"}],"rank":18,"trend":{"dod":null,"normal":{"deltaPct":-36,"dir":"down"},"isNew":false}},{"code":"CH","name_ja":"中国","score":17,"level":1,"lat":35.496,"lon":106.182,"components":{"conflict":44.7,"protests":13.7,"news":0.0,"quakes":0.0},"counts":{"conflict":14,"protests":12,"news":0,"quakes":0},"top_events":[],"rank":19,"trend":{"dod":null,"normal":{"deltaPct":-11,"dir":"flat"},"isNew":false}},{"code":"SZ","name_ja":"スイス","score":16,"level":1,"lat":47.069,"lon":8.091,"components":{"conflict":54.0,"protests":0.9,"news":1.5,"quakes":0.0},"counts":{"conflict":20,"protests":1,"news":1,"quakes":0},"top_events":[{"title":"米イラン停戦交渉、スイスで進行中","place":"スイス","url":"https://www.france24.com/en/us-iran-ceasefire-negociations-underway-in-switzerland"}],"rank":20,"trend":{"dod":null,"normal":{"deltaPct":78,"dir":"up"},"isNew":false}},{"code":"GM","name_ja":"ドイツ","score":15,"level":1,"lat":51.428,"lon":12.065,"components":{"conflict":47.0,"protests":5.2,"news":0.0,"quakes":0.0},"counts":{"conflict":12,"protests":5,"news":0,"quakes":0},"top_events":[],"rank":21,"trend":{"dod":null,"normal":{"deltaPct":25,"dir":"up"},"isNew":false}},{"code":"CO","name_ja":"コロンビア","score":15,"level":1,"lat":2.728,"lon":-76.409,"components":{"conflict":50.6,"protests":0.8,"news":0.8,"quakes":0.0},"counts":{"conflict":14,"protests":1,"news":1,"quakes":0},"top_events":[{"title":"コロンビア大統領選でイバン・セペダが有力候補として浮上","place":"コロンビア（ボゴタ）","url":"https://www.aljazeera.com/news/longform/2026/6/20/how-ivan-cepeda-emerged-a-frontrunner-in-colombias-presidential-election?traffic_source=rss"}],"rank":22,"trend":{"dod":null,"normal":{"deltaPct":36,"dir":"up"},"isNew":false}},{"code":"SO","name_ja":"ソマリア","score":15,"level":1,"lat":2.951,"lon":45.274,"components":{"conflict":53.0,"protests":0.0,"news":0.0,"quakes":0.0},"counts":{"conflict":9,"protests":0,"news":0,"quakes":0},"top_events":[],"rank":23,"trend":{"dod":null,"normal":{"deltaPct":50,"dir":"up"},"isNew":false}},{"code":"CU","name_ja":"キューバ","score":12,"level":1,"lat":22.461,"lon":-80.612,"components":{"conflict":33.7,"protests":9.0,"news":0.0,"quakes":0.0},"counts":{"conflict":10,"protests":5,"news":0,"quakes":0},"top_events":[],"rank":24,"trend":{"dod":null,"normal":{"deltaPct":33,"dir":"up"},"isNew":false}},{"code":"RP","name_ja":"フィリピン","score":11,"level":1,"lat":13.104,"lon":121.806,"components":{"conflict":32.9,"protests":4.0,"news":0.0,"quakes":0.0},"counts":{"conflict":12,"protests":5,"news":0,"quakes":0},"top_events":[],"rank":25,"trend":{"dod":null,"normal":{"deltaPct":-42,"dir":"down"},"isNew":false}},{"code":"PL","name_ja":"ポーランド","score":11,"level":1,"lat":52.164,"lon":20.655,"components":{"conflict":33.4,"protests":4.0,"news":0.0,"quakes":0.0},"counts":{"conflict":12,"protests":5,"news":0,"quakes":0},"top_events":[],"rank":26,"trend":{"dod":null,"normal":{"deltaPct":-21,"dir":"down"},"isNew":false}},{"code":"SP","name_ja":"スペイン","score":11,"level":1,"lat":41.447,"lon":-2.095,"components":{"conflict":38.2,"protests":0.0,"news":0.0,"quakes":0.0},"counts":{"conflict":12,"protests":0,"news":0,"quakes":0},"top_events":[],"rank":27,"trend":{"dod":null,"normal":{"deltaPct":267,"dir":"up"},"isNew":false}},{"code":"DR","name_ja":"ドミニカ共和国","score":10,"level":1,"lat":18.602,"lon":-69.453,"components":{"conflict":35.7,"protests":0.0,"news":0.0,"quakes":0.0},"counts":{"conflict":9,"protests":0,"news":0,"quakes":0},"top_events":[],"rank":28,"trend":{"dod":null,"normal":{"deltaPct":-17,"dir":"down"},"isNew":false}},{"code":"BL","name_ja":"ボリビア","score":9,"level":1,"lat":-16.553,"lon":-67.638,"components":{"conflict":12.2,"protests":15.9,"news":3.0,"quakes":0.0},"counts":{"conflict":2,"protests":10,"news":2,"quakes":0},"top_events":[{"title":"ボリビア、ブロケード危機の中で非常事態を宣言","place":"ボリビア","url":"https://www.aljazeera.com/news/2026/6/20/bolivia-declares-state-of-emergency-amid-blockade-crisis?traffic_source=rss"},{"title":"ボリビアが非常事態宣言、50日間の封鎖危機が深刻化","place":"ボリビア","url":"https://www.france24.com/en/bolivia-declares-state-of-emergency-escalating-a-50-day-blockade-crisis"}],"rank":29,"trend":{"dod":null,"normal":{"deltaPct":12,"dir":"flat"},"isNew":false}},{"code":"JA","name_ja":"日本","score":9,"level":1,"lat":35.282,"lon":138.001,"components":{"conflict":24.8,"protests":3.5,"news":0.0,"quakes":1.2},"counts":{"conflict":7,"protests":3,"news":0,"quakes":1},"top_events":[{"title":"M4.5 地震","place":"20 km SE of Nyūzen, Japan","url":"https://earthquake.usgs.gov/earthquakes/eventpage/us7000sunx"}],"rank":30,"trend":{"dod":null,"normal":{"deltaPct":-18,"dir":"down"},"isNew":false}},{"code":"QA","name_ja":"カタール","score":8,"level":1,"lat":25.481,"lon":51.276,"components":{"conflict":25.4,"protests":2.0,"news":0.0,"quakes":0.0},"counts":{"conflict":7,"protests":2,"news":0,"quakes":0},"top_events":[],"rank":31,"trend":{"dod":null,"normal":{"deltaPct":33,"dir":"up"},"isNew":false}},{"code":"NO","name_ja":"ノルウェー","score":8,"level":1,"lat":59.917,"lon":10.75,"components":{"conflict":26.9,"protests":0.0,"news":0.0,"quakes":0.0},"counts":{"conflict":5,"protests":0,"news":0,"quakes":0},"top_events":[],"rank":32,"trend":{"dod":null,"normal":null,"isNew":true}},{"code":"WE","name_ja":"ヨルダン川西岸","score":7,"level":1,"lat":31.842,"lon":35.21,"components":{"conflict":13.1,"protests":11.7,"news":0.0,"quakes":0.0},"counts":{"conflict":4,"protests":9,"news":0,"quakes":0},"top_events":[],"rank":33,"trend":{"dod":null,"normal":{"deltaPct":40,"dir":"up"},"isNew":false}},{"code":"KU","name_ja":"クウェート","score":7,"level":1,"lat":29.5,"lon":47.75,"components":{"conflict":22.8,"protests":0.0,"news":0.0,"quakes":0.0},"counts":{"conflict":5,"protests":0,"news":0,"quakes":0},"top_events":[],"rank":34,"trend":{"dod":null,"normal":{"deltaPct":600,"dir":"up"},"isNew":false}},{"code":"VM","name_ja":"ベトナム","score":6,"level":1,"lat":12.228,"lon":106.805,"components":{"conflict":20.7,"protests":1.2,"news":0.0,"quakes":0.0},"counts":{"conflict":6,"protests":2,"news":0,"quakes":0},"top_events":[],"rank":35,"trend":{"dod":null,"normal":{"deltaPct":-14,"dir":"flat"},"isNew":false}},{"code":"LT","name_ja":"レソト","score":6,"level":1,"lat":-29.808,"lon":27.816,"components":{"conflict":21.1,"protests":0.0,"news":0.0,"quakes":0.0},"counts":{"conflict":5,"protests":0,"news":0,"quakes":0},"top_events":[],"rank":36,"trend":{"dod":null,"normal":{"deltaPct":0,"dir":"flat"},"isNew":false}},{"code":"IT","name_ja":"イタリア","score":5,"level":1,"lat":42.465,"lon":12.698,"components":{"conflict":13.1,"protests":5.0,"news":0.8,"quakes":0.0},"counts":{"conflict":5,"protests":5,"news":1,"quakes":0},"top_events":[{"title":"トランプ氏、イタリアのメローニ首相が人気獲得のため自分との写真撮影を求めたと主張","place":"イタリア（ローマ）","url":"https://www.aljazeera.com/news/2026/6/20/trump-insists-italys-meloni-sought-photos-with-him-to-boost?traffic_source=rss"}],"rank":37,"trend":{"dod":null,"normal":{"deltaPct":-58,"dir":"down"},"isNew":false}},{"code":"SU","name_ja":"スーダン","score":5,"level":1,"lat":13.856,"lon":30.22,"components":{"conflict":18.1,"protests":0.0,"news":0.0,"quakes":0.0},"counts":{"conflict":8,"protests":0,"news":0,"quakes":0},"top_events":[],"rank":38,"trend":{"dod":null,"normal":{"deltaPct":-86,"dir":"down"},"isNew":false}},{"code":"ET","name_ja":"エチオピア","score":5,"level":1,"lat":10.481,"lon":39.114,"components":{"conflict":12.3,"protests":3.7,"news":0.0,"quakes":0.0},"counts":{"conflict":5,"protests":2,"news":0,"quakes":0},"top_events":[],"rank":39,"trend":{"dod":null,"normal":{"deltaPct":25,"dir":"up"},"isNew":false}},{"code":"EG","name_ja":"エジプト","score":5,"level":1,"lat":29.734,"lon":30.765,"components":{"conflict":17.5,"protests":0.0,"news":0.0,"quakes":0.0},"counts":{"conflict":7,"protests":0,"news":0,"quakes":0},"top_events":[],"rank":40,"trend":{"dod":null,"normal":{"deltaPct":-38,"dir":"down"},"isNew":false}},{"code":"GR","name_ja":"ギリシャ","score":5,"level":1,"lat":39.291,"lon":22.107,"components":{"conflict":14.7,"protests":0.9,"news":0.0,"quakes":0.0},"counts":{"conflict":6,"protests":1,"news":0,"quakes":0},"top_events":[],"rank":41,"trend":{"dod":null,"normal":{"deltaPct":67,"dir":"up"},"isNew":false}},{"code":"BR","name_ja":"ブラジル","score":5,"level":1,"lat":-11.37,"lon":-40.11,"components":{"conflict":17.2,"protests":0.9,"news":0.0,"quakes":0.0},"counts":{"conflict":5,"protests":1,"news":0,"quakes":0},"top_events":[],"rank":42,"trend":{"dod":null,"normal":{"deltaPct":0,"dir":"flat"},"isNew":false}},{"code":"NZ","name_ja":"ニュージーランド","score":5,"level":1,"lat":-43.612,"lon":172.44,"components":{"conflict":15.8,"protests":0.0,"news":0.0,"quakes":0.0},"counts":{"conflict":5,"protests":0,"news":0,"quakes":0},"top_events":[],"rank":43,"trend":{"dod":null,"normal":{"deltaPct":-69,"dir":"down"},"isNew":false}},{"code":"NG","name_ja":"ニジェール","score":5,"level":1,"lat":13.517,"lon":2.117,"components":{"conflict":16.4,"protests":0.0,"news":0.0,"quakes":0.0},"counts":{"conflict":2,"protests":0,"news":0,"quakes":0},"top_events":[],"rank":44,"trend":{"dod":null,"normal":{"deltaPct":25,"dir":"up"},"isNew":false}},{"code":"ID","name_ja":"インドネシア","score":4,"level":1,"lat":-5.071,"lon":109.231,"components":{"conflict":8.2,"protests":5.7,"news":0.0,"quakes":0.0},"counts":{"conflict":4,"protests":6,"news":0,"quakes":0},"top_events":[],"rank":45,"trend":{"dod":null,"normal":{"deltaPct":-33,"dir":"down"},"isNew":false}},{"code":"ZA","name_ja":"ザンビア","score":4,"level":1,"lat":-15.0,"lon":30.0,"components":{"conflict":12.5,"protests":0.0,"news":0.0,"quakes":0.0},"counts":{"conflict":7,"protests":0,"news":0,"quakes":0},"top_events":[],"rank":46,"trend":{"dod":null,"normal":{"deltaPct":300,"dir":"up"},"isNew":false}},{"code":"VE","name_ja":"ベネズエラ","score":4,"level":1,"lat":8.0,"lon":-66.0,"components":{"conflict":13.4,"protests":0.0,"news":0.0,"quakes":0.0},"counts":{"conflict":7,"protests":0,"news":0,"quakes":0},"top_events":[],"rank":47,"trend":{"dod":null,"normal":{"deltaPct":0,"dir":"flat"},"isNew":false}},{"code":"MX","name_ja":"メキシコ","score":4,"level":1,"lat":21.873,"lon":-99.938,"components":{"conflict":9.8,"protests":2.6,"news":0.0,"quakes":0.0},"counts":{"conflict":4,"protests":1,"news":0,"quakes":0},"top_events":[],"rank":48,"trend":{"dod":null,"normal":{"deltaPct":-20,"dir":"down"},"isNew":false}},{"code":"ZI","name_ja":"ジンバブエ","score":4,"level":1,"lat":-19.714,"lon":29.462,"components":{"conflict":14.3,"protests":0.0,"news":0.0,"quakes":0.0},"counts":{"conflict":5,"protests":0,"news":0,"quakes":0},"top_events":[],"rank":49,"trend":{"dod":null,"normal":{"deltaPct":0,"dir":"flat"},"isNew":false}},{"code":"GZ","name_ja":"GZ","score":4,"level":1,"lat":31.43,"lon":34.365,"components":{"conflict":15.2,"protests":0.0,"news":0.0,"quakes":0.0},"counts":{"conflict":4,"protests":0,"news":0,"quakes":0},"top_events":[],"rank":50,"trend":{"dod":null,"normal":{"deltaPct":33,"dir":"up"},"isNew":false}},{"code":"LY","name_ja":"リビア","score":4,"level":1,"lat":25.0,"lon":17.0,"components":{"conflict":12.7,"protests":0.0,"news":0.0,"quakes":0.0},"counts":{"conflict":3,"protests":0,"news":0,"quakes":0},"top_events":[],"rank":51,"trend":{"dod":null,"normal":{"deltaPct":0,"dir":"flat"},"isNew":false}},{"code":"BC","name_ja":"ボツワナ","score":4,"level":1,"lat":-24.432,"lon":25.967,"components":{"conflict":14.4,"protests":1.2,"news":0.0,"quakes":0.0},"counts":{"conflict":2,"protests":1,"news":0,"quakes":0},"top_events":[],"rank":52,"trend":{"dod":null,"normal":{"deltaPct":-20,"dir":"down"},"isNew":false}},{"code":"BE","name_ja":"ベルギー","score":3,"level":1,"lat":50.833,"lon":4.266,"components":{"conflict":7.9,"protests":3.5,"news":0.0,"quakes":0.0},"counts":{"conflict":2,"protests":6,"news":0,"quakes":0},"top_events":[],"rank":53,"trend":{"dod":null,"normal":{"deltaPct":0,"dir":"flat"},"isNew":false}},{"code":"BO","name_ja":"ベラルーシ","score":3,"level":1,"lat":53.442,"lon":27.787,"components":{"conflict":11.7,"protests":0.0,"news":0.0,"quakes":0.0},"counts":{"conflict":7,"protests":0,"news":0,"quakes":0},"top_events":[],"rank":54,"trend":{"dod":null,"normal":{"deltaPct":0,"dir":"flat"},"isNew":false}},{"code":"JO","name_ja":"ヨルダン","score":3,"level":1,"lat":31.043,"lon":35.997,"components":{"conflict":10.5,"protests":0.0,"news":0.8,"quakes":0.0},"counts":{"conflict":5,"protests":0,"news":1,"quakes":0},"top_events":[{"title":"「最高になれたはずだ」：トランプ前大統領、イラン核合意をめぐってイスラエルから批判の声","place":"イスラエル","url":"https://www.aljazeera.com/news/2026/6/20/you-could-have-been-the-greatest-trump-faces-israeli-anger-over-iran-deal?traffic_source=rss"}],"rank":55,"trend":{"dod":null,"normal":{"deltaPct":-25,"dir":"down"},"isNew":false}},{"code":"MU","name_ja":"オマーン","score":3,"level":1,"lat":25.0,"lon":58.0,"components":{"conflict":11.5,"protests":0.0,"news":0.0,"quakes":0.0},"counts":{"conflict":5,"protests":0,"news":0,"quakes":0},"top_events":[],"rank":56,"trend":{"dod":null,"normal":{"deltaPct":-40,"dir":"down"},"isNew":false}},{"code":"TU","name_ja":"トルコ","score":3,"level":1,"lat":39.474,"lon":33.652,"components":{"conflict":6.7,"protests":3.6,"news":0.0,"quakes":0.0},"counts":{"conflict":2,"protests":3,"news":0,"quakes":0},"top_events":[],"rank":57,"trend":{"dod":null,"normal":{"deltaPct":-25,"dir":"down"},"isNew":false}},{"code":"BD","name_ja":"バミューダ","score":3,"level":1,"lat":32.333,"lon":-64.75,"components":{"conflict":10.2,"protests":0.0,"news":0.0,"quakes":0.0},"counts":{"conflict":3,"protests":0,"news":0,"quakes":0},"top_events":[],"rank":58,"trend":{"dod":null,"normal":null,"isNew":true}},{"code":"ML","name_ja":"マリ","score":3,"level":1,"lat":17.0,"lon":-4.0,"components":{"conflict":11.4,"protests":0.0,"news":0.0,"quakes":0.0},"counts":{"conflict":3,"protests":0,"news":0,"quakes":0},"top_events":[],"rank":59,"trend":{"dod":null,"normal":{"deltaPct":0,"dir":"flat"},"isNew":false}},{"code":"JE","name_ja":"JE","score":3,"level":1,"lat":49.217,"lon":-2.117,"components":{"conflict":10.6,"protests":0.0,"news":0.0,"quakes":0.0},"counts":{"conflict":2,"protests":0,"news":0,"quakes":0},"top_events":[],"rank":60,"trend":{"dod":null,"normal":{"deltaPct":300,"dir":"up"},"isNew":false}},{"code":"HK","name_ja":"香港","score":3,"level":1,"lat":22.335,"lon":114.142,"components":{"conflict":7.2,"protests":2.2,"news":0.0,"quakes":0.0},"counts":{"conflict":1,"protests":1,"news":0,"quakes":0},"top_events":[],"rank":61,"trend":{"dod":null,"normal":{"deltaPct":0,"dir":"flat"},"isNew":false}},{"code":"BH","name_ja":"ベリーズ","score":3,"level":1,"lat":16.155,"lon":-82.06,"components":{"conflict":8.7,"protests":0.0,"news":0.0,"quakes":0.0},"counts":{"conflict":2,"protests":0,"news":0,"quakes":0},"top_events":[],"rank":62,"trend":{"dod":null,"normal":{"deltaPct":-25,"dir":"down"},"isNew":false}},{"code":"AL","name_ja":"アルバニア","score":2,"level":1,"lat":41.28,"lon":19.788,"components":{"conflict":0.0,"protests":6.0,"news":0.0,"quakes":0.0},"counts":{"conflict":0,"protests":6,"news":0,"quakes":0},"top_events":[],"rank":63,"trend":{"dod":null,"normal":{"deltaPct":100,"dir":"up"},"isNew":false}},{"code":"AR","name_ja":"アルゼンチン","score":2,"level":1,"lat":-33.107,"lon":-59.594,"components":{"conflict":7.2,"protests":0.0,"news":0.0,"quakes":1.2},"counts":{"conflict":4,"protests":0,"news":0,"quakes":1},"top_events":[{"title":"M4.5 地震","place":"60 km WNW of Abra Pampa, Argentina","url":"https://earthquake.usgs.gov/earthquakes/eventpage/us7000suru"}],"rank":64,"trend":{"dod":null,"normal":{"deltaPct":0,"dir":"flat"},"isNew":false}},{"code":"KZ","name_ja":"カザフスタン","score":2,"level":1,"lat":48.0,"lon":68.0,"components":{"conflict":7.8,"protests":0.7,"news":0.0,"quakes":0.0},"counts":{"conflict":3,"protests":1,"news":0,"quakes":0},"top_events":[],"rank":65,"trend":{"dod":null,"normal":{"deltaPct":200,"dir":"up"},"isNew":false}},{"code":"AU","name_ja":"オーストリア","score":2,"level":1,"lat":47.333,"lon":13.333,"components":{"conflict":8.2,"protests":0.0,"news":0.0,"quakes":0.0},"counts":{"conflict":4,"protests":0,"news":0,"quakes":0},"top_events":[],"rank":66,"trend":{"dod":null,"normal":{"deltaPct":0,"dir":"flat"},"isNew":false}},{"code":"GH","name_ja":"ガーナ","score":2,"level":1,"lat":6.707,"lon":-0.147,"components":{"conflict":4.0,"protests":2.1,"news":0.0,"quakes":0.0},"counts":{"conflict":1,"protests":2,"news":0,"quakes":0},"top_events":[],"rank":67,"trend":{"dod":null,"normal":{"deltaPct":0,"dir":"flat"},"isNew":false}},{"code":"AG","name_ja":"アルジェリア","score":2,"level":1,"lat":28.0,"lon":3.0,"components":{"conflict":4.1,"protests":3.5,"news":0.0,"quakes":0.0},"counts":{"conflict":1,"protests":2,"news":0,"quakes":0},"top_events":[],"rank":68,"trend":{"dod":null,"normal":{"deltaPct":100,"dir":"up"},"isNew":false}},{"code":"LA","name_ja":"ラオス","score":2,"level":1,"lat":18.0,"lon":105.0,"components":{"conflict":6.5,"protests":0.0,"news":0.0,"quakes":0.0},"counts":{"conflict":2,"protests":0,"news":0,"quakes":0},"top_events":[],"rank":69,"trend":{"dod":null,"normal":null,"isNew":true}},{"code":"DJ","name_ja":"ジブチ","score":2,"level":1,"lat":19.0,"lon":39.5,"components":{"conflict":6.6,"protests":0.0,"news":0.0,"quakes":0.0},"counts":{"conflict":2,"protests":0,"news":0,"quakes":0},"top_events":[],"rank":70,"trend":{"dod":null,"normal":{"deltaPct":0,"dir":"flat"},"isNew":false}},{"code":"KE","name_ja":"ケニア","score":2,"level":1,"lat":0.118,"lon":35.953,"components":{"conflict":6.8,"protests":0.0,"news":0.0,"quakes":0.0},"counts":{"conflict":2,"protests":0,"news":0,"quakes":0},"top_events":[],"rank":71,"trend":{"dod":null,"normal":{"deltaPct":0,"dir":"flat"},"isNew":false}},{"code":"CI","name_ja":"チリ","score":2,"level":1,"lat":-28.049,"lon":-70.557,"components":{"conflict":4.1,"protests":0.0,"news":0.0,"quakes":1.4},"counts":{"conflict":1,"protests":0,"news":0,"quakes":1},"top_events":[{"title":"M4.7 地震","place":"76 km W of Ollagüe, Chile","url":"https://earthquake.usgs.gov/earthquakes/eventpage/us7000suq2"}],"rank":72,"trend":{"dod":null,"normal":{"deltaPct":0,"dir":"flat"},"isNew":false}},{"code":"HO","name_ja":"ホンジュラス","score":2,"level":1,"lat":15.0,"lon":-86.5,"components":{"conflict":6.7,"protests":0.0,"news":0.0,"quakes":0.0},"counts":{"conflict":1,"protests":0,"news":0,"quakes":0},"top_events":[],"rank":73,"trend":{"dod":null,"normal":{"deltaPct":100,"dir":"up"},"isNew":false}},{"code":"MI","name_ja":"マラウイ","score":2,"level":1,"lat":-13.5,"lon":34.0,"components":{"conflict":6.8,"protests":0.0,"news":0.0,"quakes":0.0},"counts":{"conflict":1,"protests":0,"news":0,"quakes":0},"top_events":[],"rank":74,"trend":{"dod":null,"normal":{"deltaPct":0,"dir":"flat"},"isNew":false}},{"code":"UG","name_ja":"ウガンダ","score":2,"level":1,"lat":0.741,"lon":30.042,"components":{"conflict":8.3,"protests":0.0,"news":0.0,"quakes":0.0},"counts":{"conflict":1,"protests":0,"news":0,"quakes":0},"top_events":[],"rank":75,"trend":{"dod":null,"normal":{"deltaPct":-33,"dir":"down"},"isNew":false}},{"code":"NU","name_ja":"ニカラグア","score":2,"level":1,"lat":13.0,"lon":-85.0,"components":{"conflict":5.8,"protests":0.0,"news":0.0,"quakes":0.0},"counts":{"conflict":1,"protests":0,"news":0,"quakes":0},"top_events":[],"rank":76,"trend":{"dod":null,"normal":{"deltaPct":0,"dir":"flat"},"isNew":false}},{"code":"CG","name_ja":"コンゴ民主共和国","score":2,"level":1,"lat":0.0,"lon":25.0,"components":{"conflict":7.0,"protests":0.0,"news":0.0,"quakes":0.0},"counts":{"conflict":1,"protests":0,"news":0,"quakes":0},"top_events":[],"rank":77,"trend":{"dod":null,"normal":{"deltaPct":0,"dir":"flat"},"isNew":false}},{"code":"AJ","name_ja":"アゼルバイジャン","score":2,"level":1,"lat":40.395,"lon":49.882,"components":{"conflict":8.1,"protests":0.0,"news":0.0,"quakes":0.0},"counts":{"conflict":1,"protests":0,"news":0,"quakes":0},"top_events":[],"rank":78,"trend":{"dod":null,"normal":{"deltaPct":0,"dir":"flat"},"isNew":false}},{"code":"NL","name_ja":"オランダ","score":1,"level":1,"lat":52.5,"lon":5.75,"components":{"conflict":0.0,"protests":3.8,"news":0.0,"quakes":0.0},"counts":{"conflict":0,"protests":4,"news":0,"quakes":0},"top_events":[],"rank":79,"trend":{"dod":null,"normal":{"deltaPct":-83,"dir":"down"},"isNew":false}},{"code":"LU","name_ja":"ルクセンブルク","score":1,"level":1,"lat":49.75,"lon":6.167,"components":{"conflict":0.0,"protests":2.9,"news":0.0,"quakes":0.0},"counts":{"conflict":0,"protests":4,"news":0,"quakes":0},"top_events":[],"rank":80,"trend":{"dod":null,"normal":{"deltaPct":0,"dir":"flat"},"isNew":false}},{"code":"JM","name_ja":"ジャマイカ","score":1,"level":1,"lat":18.471,"lon":-77.919,"components":{"conflict":0.0,"protests":4.0,"news":0.0,"quakes":0.0},"counts":{"conflict":0,"protests":4,"news":0,"quakes":0},"top_events":[],"rank":81,"trend":{"dod":null,"normal":{"deltaPct":0,"dir":"flat"},"isNew":false}},{"code":"ER","name_ja":"エリトリア","score":1,"level":1,"lat":15.166,"lon":38.967,"components":{"conflict":2.0,"protests":1.6,"news":0.0,"quakes":0.0},"counts":{"conflict":1,"protests":2,"news":0,"quakes":0},"top_events":[],"rank":82,"trend":{"dod":null,"normal":{"deltaPct":0,"dir":"flat"},"isNew":false}},{"code":"EC","name_ja":"エクアドル","score":1,"level":1,"lat":-2.167,"lon":-79.9,"components":{"conflict":0.0,"protests":3.2,"news":0.0,"quakes":0.0},"counts":{"conflict":0,"protests":3,"news":0,"quakes":0},"top_events":[],"rank":83,"trend":{"dod":null,"normal":{"deltaPct":0,"dir":"flat"},"isNew":false}},{"code":"CY","name_ja":"キプロス","score":1,"level":1,"lat":35.016,"lon":33.022,"components":{"conflict":2.7,"protests":0.0,"news":0.0,"quakes":0.0},"counts":{"conflict":2,"protests":0,"news":0,"quakes":0},"top_events":[],"rank":84,"trend":{"dod":null,"normal":{"deltaPct":0,"dir":"flat"},"isNew":false}},{"code":"BN","name_ja":"ベナン","score":1,"level":1,"lat":9.5,"lon":2.25,"components":{"conflict":3.3,"protests":0.0,"news":0.0,"quakes":0.0},"counts":{"conflict":2,"protests":0,"news":0,"quakes":0},"top_events":[],"rank":85,"trend":{"dod":null,"normal":{"deltaPct":-75,"dir":"down"},"isNew":false}},{"code":"FG","name_ja":"仏領ギアナ","score":1,"level":1,"lat":5.155,"lon":-52.648,"components":{"conflict":4.3,"protests":0.0,"news":0.0,"quakes":0.0},"counts":{"conflict":2,"protests":0,"news":0,"quakes":0},"top_events":[],"rank":86,"trend":{"dod":null,"normal":{"deltaPct":0,"dir":"flat"},"isNew":false}},{"code":"SA","name_ja":"サウジアラビア","score":1,"level":1,"lat":24.837,"lon":45.804,"components":{"conflict":1.7,"protests":1.2,"news":0.0,"quakes":0.0},"counts":{"conflict":1,"protests":1,"news":0,"quakes":0},"top_events":[],"rank":87,"trend":{"dod":null,"normal":{"deltaPct":0,"dir":"flat"},"isNew":false}},{"code":"SW","name_ja":"スウェーデン","score":1,"level":1,"lat":60.1,"lon":17.173,"components":{"conflict":0.0,"protests":1.8,"news":0.0,"quakes":0.0},"counts":{"conflict":0,"protests":2,"news":0,"quakes":0},"top_events":[],"rank":88,"trend":{"dod":null,"normal":{"deltaPct":0,"dir":"flat"},"isNew":false}},{"code":"BX","name_ja":"ブルネイ","score":1,"level":1,"lat":15.0,"lon":115.0,"components":{"conflict":4.8,"protests":0.0,"news":0.0,"quakes":0.0},"counts":{"conflict":1,"protests":0,"news":0,"quakes":0},"top_events":[],"rank":89,"trend":{"dod":null,"normal":null,"isNew":true}},{"code":"OD","name_ja":"南スーダン","score":1,"level":1,"lat":4.846,"lon":31.601,"components":{"conflict":2.3,"protests":0.0,"news":0.0,"quakes":0.0},"counts":{"conflict":1,"protests":0,"news":0,"quakes":0},"top_events":[],"rank":90,"trend":{"dod":null,"normal":null,"isNew":true}},{"code":"FI","name_ja":"フィンランド","score":1,"level":1,"lat":60.158,"lon":24.873,"components":{"conflict":5.0,"protests":0.0,"news":0.0,"quakes":0.0},"counts":{"conflict":1,"protests":0,"news":0,"quakes":0},"top_events":[],"rank":91,"trend":{"dod":null,"normal":null,"isNew":true}},{"code":"CD","name_ja":"チャド","score":1,"level":1,"lat":15.0,"lon":19.0,"components":{"conflict":2.7,"protests":0.0,"news":0.0,"quakes":0.0},"counts":{"conflict":1,"protests":0,"news":0,"quakes":0},"top_events":[],"rank":92,"trend":{"dod":null,"normal":null,"isNew":true}},{"code":"TS","name_ja":"チュニジア","score":1,"level":1,"lat":34.299,"lon":10.07,"components":{"conflict":3.7,"protests":0.0,"news":0.0,"quakes":0.0},"counts":{"conflict":1,"protests":0,"news":0,"quakes":0},"top_events":[],"rank":93,"trend":{"dod":null,"normal":{"deltaPct":100,"dir":"up"},"isNew":false}},{"code":"IZ","name_ja":"イラク","score":1,"level":1,"lat":33.0,"lon":44.0,"components":{"conflict":4.1,"protests":0.0,"news":0.0,"quakes":0.0},"counts":{"conflict":1,"protests":0,"news":0,"quakes":0},"top_events":[],"rank":94,"trend":{"dod":null,"normal":{"deltaPct":-75,"dir":"down"},"isNew":false}},{"code":"CJ","name_ja":"ケイマン諸島","score":1,"level":1,"lat":19.5,"lon":-80.667,"components":{"conflict":3.4,"protests":0.0,"news":0.0,"quakes":0.0},"counts":{"conflict":1,"protests":0,"news":0,"quakes":0},"top_events":[],"rank":95,"trend":{"dod":null,"normal":{"deltaPct":0,"dir":"flat"},"isNew":false}},{"code":"KS","name_ja":"韓国","score":1,"level":1,"lat":37.566,"lon":127.0,"components":{"conflict":4.0,"protests":0.0,"news":0.0,"quakes":0.0},"counts":{"conflict":1,"protests":0,"news":0,"quakes":0},"top_events":[],"rank":96,"trend":{"dod":null,"normal":{"deltaPct":-50,"dir":"down"},"isNew":false}},{"code":"SN","name_ja":"シンガポール","score":1,"level":1,"lat":1.367,"lon":103.8,"components":{"conflict":3.8,"protests":0.0,"news":0.0,"quakes":0.0},"counts":{"conflict":1,"protests":0,"news":0,"quakes":0},"top_events":[],"rank":97,"trend":{"dod":null,"normal":{"deltaPct":0,"dir":"flat"},"isNew":false}},{"code":"YM","name_ja":"イエメン","score":1,"level":1,"lat":15.355,"lon":44.207,"components":{"conflict":2.5,"protests":0.0,"news":0.0,"quakes":0.0},"counts":{"conflict":1,"protests":0,"news":0,"quakes":0},"top_events":[],"rank":98,"trend":{"dod":null,"normal":{"deltaPct":0,"dir":"flat"},"isNew":false}},{"code":"TZ","name_ja":"タンザニア","score":1,"level":1,"lat":-6.8,"lon":39.283,"components":{"conflict":0.0,"protests":1.9,"news":0.0,"quakes":0.0},"counts":{"conflict":0,"protests":1,"news":0,"quakes":0},"top_events":[],"rank":99,"trend":{"dod":null,"normal":null,"isNew":true}},{"code":"DA","name_ja":"デンマーク","score":1,"level":1,"lat":55.674,"lon":12.595,"components":{"conflict":0.0,"protests":2.4,"news":0.0,"quakes":0.0},"counts":{"conflict":0,"protests":1,"news":0,"quakes":0},"top_events":[],"rank":100,"trend":{"dod":null,"normal":{"deltaPct":100,"dir":"up"},"isNew":false}},{"code":"TX","name_ja":"トルクメニスタン","score":1,"level":1,"lat":37.618,"lon":62.167,"components":{"conflict":0.0,"protests":2.5,"news":0.0,"quakes":0.0},"counts":{"conflict":0,"protests":1,"news":0,"quakes":0},"top_events":[],"rank":101,"trend":{"dod":null,"normal":{"deltaPct":-50,"dir":"down"},"isNew":false}},{"code":"GI","name_ja":"ジブラルタル","score":0,"level":1,"lat":36.133,"lon":-5.35,"components":{"conflict":0.0,"protests":1.4,"news":0.0,"quakes":0.0},"counts":{"conflict":0,"protests":2,"news":0,"quakes":0},"top_events":[],"rank":102,"trend":{"dod":null,"normal":null,"isNew":true}},{"code":"HA","name_ja":"ハイチ","score":0,"level":1,"lat":19.0,"lon":-72.417,"components":{"conflict":0.0,"protests":1.1,"news":0.0,"quakes":0.0},"counts":{"conflict":0,"protests":2,"news":0,"quakes":0},"top_events":[],"rank":103,"trend":{"dod":null,"normal":{"deltaPct":0,"dir":"flat"},"isNew":false}},{"code":"RO","name_ja":"ルーマニア","score":0,"level":1,"lat":44.433,"lon":26.1,"components":{"conflict":0.0,"protests":1.4,"news":0.0,"quakes":0.0},"counts":{"conflict":0,"protests":2,"news":0,"quakes":0},"top_events":[],"rank":104,"trend":{"dod":null,"normal":{"deltaPct":0,"dir":"flat"},"isNew":false}},{"code":"BF","name_ja":"バハマ","score":0,"level":1,"lat":25.083,"lon":-77.35,"components":{"conflict":0.0,"protests":1.5,"news":0.0,"quakes":0.0},"counts":{"conflict":0,"protests":2,"news":0,"quakes":0},"top_events":[],"rank":105,"trend":{"dod":null,"normal":{"deltaPct":-100,"dir":"down"},"isNew":false}},{"code":"CS","name_ja":"コスタリカ","score":0,"level":1,"lat":10.0,"lon":-84.0,"components":{"conflict":0.9,"protests":0.0,"news":0.0,"quakes":0.0},"counts":{"conflict":1,"protests":0,"news":0,"quakes":0},"top_events":[],"rank":106,"trend":{"dod":null,"normal":null,"isNew":true}},{"code":"PE","name_ja":"ペルー","score":0,"level":1,"lat":-10.0,"lon":-76.0,"components":{"conflict":0.9,"protests":0.0,"news":0.0,"quakes":0.0},"counts":{"conflict":1,"protests":0,"news":0,"quakes":0},"top_events":[],"rank":107,"trend":{"dod":null,"normal":{"deltaPct":0,"dir":"flat"},"isNew":false}},{"code":"TH","name_ja":"タイ","score":0,"level":1,"lat":15.0,"lon":100.0,"components":{"conflict":0.9,"protests":0.0,"news":0.0,"quakes":0.0},"counts":{"conflict":1,"protests":0,"news":0,"quakes":0},"top_events":[],"rank":108,"trend":{"dod":null,"normal":{"deltaPct":-100,"dir":"down"},"isNew":false}},{"code":"MO","name_ja":"モロッコ","score":0,"level":1,"lat":33.59,"lon":-7.61,"components":{"conflict":0.0,"protests":1.5,"news":0.0,"quakes":0.0},"counts":{"conflict":0,"protests":1,"news":0,"quakes":0},"top_events":[],"rank":109,"trend":{"dod":null,"normal":null,"isNew":true}},{"code":"CB","name_ja":"カンボジア","score":0,"level":1,"lat":13.0,"lon":105.0,"components":{"conflict":0.0,"protests":0.9,"news":0.0,"quakes":0.0},"counts":{"conflict":0,"protests":1,"news":0,"quakes":0},"top_events":[],"rank":110,"trend":{"dod":null,"normal":{"deltaPct":0,"dir":"flat"},"isNew":false}},{"code":"IC","name_ja":"アイスランド","score":0,"level":1,"lat":65.0,"lon":-18.0,"components":{"conflict":0.0,"protests":0.5,"news":0.0,"quakes":0.0},"counts":{"conflict":0,"protests":1,"news":0,"quakes":0},"top_events":[],"rank":111,"trend":{"dod":null,"normal":{"deltaPct":0,"dir":"flat"},"isNew":false}},{"code":"CE","name_ja":"スリランカ","score":0,"level":1,"lat":8.751,"lon":80.497,"components":{"conflict":0.0,"protests":1.2,"news":0.0,"quakes":0.0},"counts":{"conflict":0,"protests":1,"news":0,"quakes":0},"top_events":[],"rank":112,"trend":{"dod":null,"normal":{"deltaPct":-100,"dir":"down"},"isNew":false}}]}