{"updated":"2026-06-21T11:35:03Z","model":"claude-haiku-4-5","thresholds":{"mag_min":4.5,"top_n":8},"countries":[{"code":"US","name_ja":"アメリカ","score":100,"level":5,"lat":37.012,"lon":-95.843,"components":{"conflict":1632.4,"protests":68.8,"news":0.0,"quakes":0.0},"counts":{"conflict":437,"protests":59,"news":0,"quakes":0},"top_events":[],"rank":1,"trend":{"dod":{"delta":0,"dir":"flat"},"normal":{"deltaPct":0,"dir":"flat"},"isNew":false},"narrative_ja":"437件の紛争が記録されている"},{"code":"IS","name_ja":"イスラエル","score":100,"level":5,"lat":31.621,"lon":34.65,"components":{"conflict":1249.6,"protests":5.9,"news":0.0,"quakes":0.0},"counts":{"conflict":309,"protests":7,"news":0,"quakes":0},"top_events":[],"rank":2,"trend":{"dod":{"delta":0,"dir":"flat"},"normal":{"deltaPct":0,"dir":"flat"},"isNew":false},"narrative_ja":"309件の紛争が記録されている"},{"code":"LE","name_ja":"レバノン","score":100,"level":5,"lat":33.724,"lon":35.692,"components":{"conflict":436.0,"protests":2.6,"news":7.5,"quakes":0.0},"counts":{"conflict":145,"protests":2,"news":5,"quakes":0},"top_events":[{"title":"イスラエルとヒズボラが砲火を交え、米国とイラン協議がスイスで開始","place":"レバノン・イスラエル国境地帯","url":"https://www.france24.com/en/israel-and-hezbollah-trade-fire-as-us-iran-talks-begin-in-switzerland"},{"title":"イランは米国との平和交渉でレバノンが「主要議題」だと主張","place":"レバノン","url":"https://www.france24.com/en/iran-claims-lebanon-main-topic-at-peace-talks-with-us"},{"title":"レバノンの古代遺跡、イスラエルの攻撃の脅威にさらされている","place":"レバノン","url":"https://www.aljazeera.com/video/newsfeed/2026/6/21/lebanons-ancient-monuments-remain-at-risk-from-israeli-attack?traffic_source=rss"}],"rank":3,"trend":{"dod":{"delta":0,"dir":"flat"},"normal":{"deltaPct":0,"dir":"flat"},"isNew":false},"narrative_ja":"イスラエルとヒズボラの砲火交換、米国とイランの協議対象となるなど複数国の紛争に関与している"},{"code":"IN","name_ja":"インド","score":100,"level":5,"lat":22.015,"lon":77.737,"components":{"conflict":302.6,"protests":74.6,"news":0.0,"quakes":0.0},"counts":{"conflict":85,"protests":64,"news":0,"quakes":0},"top_events":[],"rank":4,"trend":{"dod":{"delta":0,"dir":"flat"},"normal":{"deltaPct":0,"dir":"flat"},"isNew":false},"narrative_ja":"85件の紛争と64件の抗議が記録されている"},{"code":"UK","name_ja":"イギリス","score":100,"level":5,"lat":53.498,"lon":-2.729,"components":{"conflict":436.3,"protests":34.2,"news":0.0,"quakes":0.0},"counts":{"conflict":113,"protests":23,"news":0,"quakes":0},"top_events":[],"rank":5,"trend":{"dod":{"delta":0,"dir":"flat"},"normal":{"deltaPct":0,"dir":"flat"},"isNew":false},"narrative_ja":"113件の紛争が記録されている"},{"code":"UP","name_ja":"ウクライナ","score":97,"level":5,"lat":48.025,"lon":32.544,"components":{"conflict":328.6,"protests":4.5,"news":0.0,"quakes":0.0},"counts":{"conflict":111,"protests":4,"news":0,"quakes":0},"top_events":[],"rank":6,"trend":{"dod":{"delta":-3,"dir":"flat"},"normal":{"deltaPct":13,"dir":"flat"},"isNew":false},"narrative_ja":"111件の紛争が記録されている"},{"code":"RS","name_ja":"ロシア","score":97,"level":5,"lat":55.361,"lon":59.438,"components":{"conflict":329.8,"protests":2.7,"news":1.5,"quakes":0.0},"counts":{"conflict":99,"protests":3,"news":1,"quakes":0},"top_events":[{"title":"ウクライナによるクリミア攻撃で4人が死亡、燃料販売が一時停止","place":"クリミア","url":"https://www.france24.com/en/live-news/20260621-ukrainian-strikes-on-russian-annexed-crimea-kill-4-pause-fuel-sales"}],"rank":7,"trend":{"dod":{"delta":-3,"dir":"flat"},"normal":{"deltaPct":-3,"dir":"flat"},"isNew":false},"narrative_ja":"99件の紛争が記録されており、ウクライナによる攻撃で死傷者が発生している"},{"code":"IR","name_ja":"イラン","score":84,"level":5,"lat":33.81,"lon":52.349,"components":{"conflict":242.9,"protests":46.0,"news":0.0,"quakes":0.0},"counts":{"conflict":95,"protests":25,"news":0,"quakes":0},"top_events":[],"rank":8,"trend":{"dod":{"delta":-14,"dir":"down"},"normal":{"deltaPct":-15,"dir":"down"},"isNew":false},"narrative_ja":"95件の紛争と25件の抗議が記録されている"},{"code":"AS","name_ja":"オーストラリア","score":70,"level":4,"lat":-34.11,"lon":140.091,"components":{"conflict":239.2,"protests":0.0,"news":0.0,"quakes":0.0},"counts":{"conflict":72,"protests":0,"news":0,"quakes":0},"top_events":[],"rank":9,"trend":{"dod":{"delta":42,"dir":"up"},"normal":{"deltaPct":204,"dir":"up"},"isNew":false}},{"code":"NI","name_ja":"ナイジェリア","score":47,"level":3,"lat":9.161,"lon":5.858,"components":{"conflict":145.2,"protests":14.6,"news":0.0,"quakes":0.0},"counts":{"conflict":42,"protests":15,"news":0,"quakes":0},"top_events":[],"rank":10,"trend":{"dod":{"delta":-48,"dir":"down"},"normal":{"deltaPct":-45,"dir":"down"},"isNew":false}},{"code":"SU","name_ja":"スーダン","score":39,"level":2,"lat":14.867,"lon":29.927,"components":{"conflict":133.0,"protests":2.3,"news":0.0,"quakes":0.0},"counts":{"conflict":32,"protests":2,"news":0,"quakes":0},"top_events":[],"rank":11,"trend":{"dod":{"delta":4,"dir":"flat"},"normal":{"deltaPct":189,"dir":"up"},"isNew":false}},{"code":"GZ","name_ja":"GZ","score":34,"level":2,"lat":31.46,"lon":34.419,"components":{"conflict":114.9,"protests":0.0,"news":0.0,"quakes":0.0},"counts":{"conflict":28,"protests":0,"news":0,"quakes":0},"top_events":[],"rank":12,"trend":{"dod":{"delta":31,"dir":"up"},"normal":{"deltaPct":1033,"dir":"up"},"isNew":false}},{"code":"CE","name_ja":"スリランカ","score":30,"level":2,"lat":6.808,"lon":80.536,"components":{"conflict":91.9,"protests":9.7,"news":0.0,"quakes":0.0},"counts":{"conflict":29,"protests":7,"news":0,"quakes":0},"top_events":[],"rank":13,"trend":{"dod":{"delta":28,"dir":"up"},"normal":{"deltaPct":1400,"dir":"up"},"isNew":false}},{"code":"PK","name_ja":"パキスタン","score":29,"level":2,"lat":31.788,"lon":72.024,"components":{"conflict":79.3,"protests":19.4,"news":0.0,"quakes":0.0},"counts":{"conflict":20,"protests":13,"news":0,"quakes":0},"top_events":[],"rank":14,"trend":{"dod":{"delta":-52,"dir":"down"},"normal":{"deltaPct":-64,"dir":"down"},"isNew":false}},{"code":"CH","name_ja":"中国","score":28,"level":2,"lat":27.583,"lon":109.783,"components":{"conflict":82.6,"protests":13.5,"news":0.0,"quakes":0.0},"counts":{"conflict":25,"protests":12,"news":0,"quakes":0},"top_events":[],"rank":15,"trend":{"dod":{"delta":9,"dir":"up"},"normal":{"deltaPct":65,"dir":"up"},"isNew":false}},{"code":"SF","name_ja":"南アフリカ","score":28,"level":2,"lat":-31.266,"lon":25.932,"components":{"conflict":86.9,"protests":8.6,"news":0.0,"quakes":0.0},"counts":{"conflict":19,"protests":5,"news":0,"quakes":0},"top_events":[],"rank":16,"trend":{"dod":{"delta":15,"dir":"up"},"normal":{"deltaPct":22,"dir":"up"},"isNew":false}},{"code":"FR","name_ja":"フランス","score":27,"level":2,"lat":48.236,"lon":2.287,"components":{"conflict":64.6,"protests":27.4,"news":0.0,"quakes":0.0},"counts":{"conflict":21,"protests":20,"news":0,"quakes":0},"top_events":[],"rank":17,"trend":{"dod":{"delta":4,"dir":"flat"},"normal":{"deltaPct":17,"dir":"up"},"isNew":false}},{"code":"JA","name_ja":"日本","score":26,"level":2,"lat":35.892,"lon":136.92,"components":{"conflict":83.1,"protests":6.4,"news":0.0,"quakes":0.0},"counts":{"conflict":26,"protests":4,"news":0,"quakes":0},"top_events":[],"rank":18,"trend":{"dod":{"delta":15,"dir":"up"},"normal":{"deltaPct":136,"dir":"up"},"isNew":false}},{"code":"CA","name_ja":"カナダ","score":25,"level":2,"lat":47.281,"lon":-82.26,"components":{"conflict":73.6,"protests":10.7,"news":0.0,"quakes":0.0},"counts":{"conflict":21,"protests":9,"news":0,"quakes":0},"top_events":[],"rank":19,"trend":{"dod":{"delta":7,"dir":"up"},"normal":{"deltaPct":6,"dir":"flat"},"isNew":false}},{"code":"AF","name_ja":"アフガニスタン","score":19,"level":1,"lat":33.813,"lon":65.907,"components":{"conflict":62.8,"protests":2.5,"news":0.0,"quakes":0.0},"counts":{"conflict":16,"protests":1,"news":0,"quakes":0},"top_events":[],"rank":20,"trend":{"dod":{"delta":-17,"dir":"down"},"normal":{"deltaPct":-44,"dir":"down"},"isNew":false}},{"code":"BG","name_ja":"バングラデシュ","score":17,"level":1,"lat":24.363,"lon":89.927,"components":{"conflict":27.6,"protests":31.0,"news":0.0,"quakes":0.0},"counts":{"conflict":5,"protests":15,"news":0,"quakes":0},"top_events":[],"rank":21,"trend":{"dod":{"delta":-33,"dir":"down"},"normal":{"deltaPct":-49,"dir":"down"},"isNew":false}},{"code":"NZ","name_ja":"ニュージーランド","score":17,"level":1,"lat":-42.12,"lon":174.039,"components":{"conflict":58.0,"protests":0.0,"news":0.0,"quakes":0.0},"counts":{"conflict":16,"protests":0,"news":0,"quakes":0},"top_events":[],"rank":22,"trend":{"dod":{"delta":1,"dir":"flat"},"normal":{"deltaPct":127,"dir":"up"},"isNew":false}},{"code":"EI","name_ja":"アイルランド","score":15,"level":1,"lat":53.304,"lon":-6.729,"components":{"conflict":49.4,"protests":2.4,"news":0.0,"quakes":0.0},"counts":{"conflict":14,"protests":1,"news":0,"quakes":0},"top_events":[],"rank":23,"trend":{"dod":{"delta":-9,"dir":"down"},"normal":{"deltaPct":-33,"dir":"down"},"isNew":false}},{"code":"MX","name_ja":"メキシコ","score":14,"level":1,"lat":20.368,"lon":-102.292,"components":{"conflict":46.8,"protests":1.0,"news":0.0,"quakes":0.0},"counts":{"conflict":12,"protests":1,"news":0,"quakes":0},"top_events":[],"rank":24,"trend":{"dod":{"delta":9,"dir":"up"},"normal":{"deltaPct":180,"dir":"up"},"isNew":false}},{"code":"IT","name_ja":"イタリア","score":13,"level":1,"lat":43.852,"lon":11.709,"components":{"conflict":39.1,"protests":4.6,"news":0.0,"quakes":0.0},"counts":{"conflict":12,"protests":5,"news":0,"quakes":0},"top_events":[],"rank":25,"trend":{"dod":{"delta":1,"dir":"flat"},"normal":{"deltaPct":24,"dir":"up"},"isNew":false}},{"code":"MY","name_ja":"マレーシア","score":11,"level":1,"lat":4.318,"lon":102.474,"components":{"conflict":37.9,"protests":1.2,"news":0.0,"quakes":0.0},"counts":{"conflict":13,"protests":1,"news":0,"quakes":0},"top_events":[],"rank":26,"trend":{"dod":null,"normal":null,"isNew":true}},{"code":"AL","name_ja":"アルバニア","score":10,"level":1,"lat":40.869,"lon":19.585,"components":{"conflict":16.1,"protests":18.5,"news":1.4,"quakes":0.0},"counts":{"conflict":6,"protests":19,"news":2,"quakes":0},"top_events":[{"title":"クシュナー・リゾート反対デモ、アルバニアで数万人に拡大","place":"アルバニア","url":"https://www.aljazeera.com/video/newsfeed/2026/6/21/protests-in-albania-against-kushner-resort-swell-to-tens-of-thousands?traffic_source=rss"},{"title":"アルバニアの抗議者らがクシュナー支援のリゾート開発に反対集会","place":"アルバニア","url":"https://www.aljazeera.com/gallery/2026/6/21/albanian-protesters-rally-against-kushner-backed-resort-in-protected-area?traffic_source=rss"}],"rank":27,"trend":{"dod":{"delta":9,"dir":"up"},"normal":{"deltaPct":900,"dir":"up"},"isNew":false}},{"code":"SZ","name_ja":"スイス","score":10,"level":1,"lat":46.765,"lon":7.418,"components":{"conflict":24.2,"protests":0.9,"news":9.8,"quakes":0.0},"counts":{"conflict":12,"protests":1,"news":7,"quakes":0},"top_events":[{"title":"米国とイラン代表団、スイスでの協議開始のため到着","place":"スイス","url":"https://www.aljazeera.com/video/newsfeed/2026/6/21/us-iran-delegations-arrive-as-talks-begin-in-switzerland?traffic_source=rss"},{"title":"米国とイランがスイスでの重要な交渉に直面","place":"スイス","url":"https://www.aljazeera.com/video/newsfeed/2026/6/21/us-and-iran-face-make-or-break-talks-in-switzerland?traffic_source=rss"},{"title":"イラン戦争114日目：米国とイラン代表団、スイスで重要な協議","place":"スイス","url":"https://www.aljazeera.com/news/2026/6/21/iran-war-day-114-us-iranian-delegations-in-switzerland-for-key-talks?traffic_source=rss"}],"rank":28,"trend":{"dod":{"delta":1,"dir":"flat"},"normal":{"deltaPct":-35,"dir":"down"},"isNew":false}},{"code":"GR","name_ja":"ギリシャ","score":10,"level":1,"lat":38.819,"lon":22.241,"components":{"conflict":35.8,"protests":0.0,"news":0.0,"quakes":0.0},"counts":{"conflict":7,"protests":0,"news":0,"quakes":0},"top_events":[],"rank":29,"trend":{"dod":{"delta":7,"dir":"up"},"normal":{"deltaPct":186,"dir":"up"},"isNew":false}},{"code":"CB","name_ja":"カンボジア","score":10,"level":1,"lat":11.679,"lon":105.124,"components":{"conflict":30.2,"protests":3.4,"news":0.0,"quakes":0.0},"counts":{"conflict":3,"protests":2,"news":0,"quakes":0},"top_events":[],"rank":30,"trend":{"dod":{"delta":10,"dir":"up"},"normal":{"deltaPct":1000,"dir":"up"},"isNew":false}},{"code":"CU","name_ja":"キューバ","score":9,"level":1,"lat":22.713,"lon":-81.211,"components":{"conflict":8.1,"protests":22.5,"news":0.0,"quakes":0.0},"counts":{"conflict":3,"protests":11,"news":0,"quakes":0},"top_events":[],"rank":31,"trend":{"dod":{"delta":0,"dir":"flat"},"normal":{"deltaPct":-14,"dir":"flat"},"isNew":false}},{"code":"RP","name_ja":"フィリピン","score":8,"level":1,"lat":11.881,"lon":123.071,"components":{"conflict":27.4,"protests":0.0,"news":0.0,"quakes":0.0},"counts":{"conflict":9,"protests":0,"news":0,"quakes":0},"top_events":[],"rank":32,"trend":{"dod":{"delta":-11,"dir":"down"},"normal":{"deltaPct":-33,"dir":"down"},"isNew":false}},{"code":"JO","name_ja":"ヨルダン","score":8,"level":1,"lat":31.0,"lon":36.0,"components":{"conflict":26.7,"protests":0.0,"news":0.0,"quakes":0.0},"counts":{"conflict":8,"protests":0,"news":0,"quakes":0},"top_events":[],"rank":33,"trend":{"dod":{"delta":4,"dir":"flat"},"normal":{"deltaPct":100,"dir":"up"},"isNew":false}},{"code":"ID","name_ja":"インドネシア","score":8,"level":1,"lat":-4.48,"lon":106.993,"components":{"conflict":25.1,"protests":2.0,"news":0.0,"quakes":0.0},"counts":{"conflict":6,"protests":2,"news":0,"quakes":0},"top_events":[],"rank":34,"trend":{"dod":{"delta":2,"dir":"flat"},"normal":{"deltaPct":33,"dir":"up"},"isNew":false}},{"code":"VM","name_ja":"ベトナム","score":7,"level":1,"lat":12.01,"lon":107.403,"components":{"conflict":22.1,"protests":1.9,"news":0.0,"quakes":0.0},"counts":{"conflict":7,"protests":2,"news":0,"quakes":0},"top_events":[],"rank":35,"trend":{"dod":{"delta":0,"dir":"flat"},"normal":{"deltaPct":8,"dir":"flat"},"isNew":false}},{"code":"SY","name_ja":"シリア","score":7,"level":1,"lat":34.229,"lon":36.617,"components":{"conflict":22.3,"protests":0.0,"news":0.0,"quakes":0.0},"counts":{"conflict":6,"protests":0,"news":0,"quakes":0},"top_events":[],"rank":36,"trend":{"dod":{"delta":-6,"dir":"down"},"normal":{"deltaPct":-67,"dir":"down"},"isNew":false}},{"code":"KE","name_ja":"ケニア","score":6,"level":1,"lat":-1.523,"lon":38.797,"components":{"conflict":13.7,"protests":7.3,"news":0.0,"quakes":0.0},"counts":{"conflict":4,"protests":7,"news":0,"quakes":0},"top_events":[],"rank":37,"trend":{"dod":{"delta":4,"dir":"flat"},"normal":{"deltaPct":200,"dir":"up"},"isNew":false}},{"code":"BR","name_ja":"ブラジル","score":6,"level":1,"lat":-14.586,"lon":-50.96,"components":{"conflict":18.5,"protests":2.1,"news":0.0,"quakes":0.0},"counts":{"conflict":7,"protests":2,"news":0,"quakes":0},"top_events":[],"rank":38,"trend":{"dod":{"delta":1,"dir":"flat"},"normal":{"deltaPct":20,"dir":"up"},"isNew":false}},{"code":"PL","name_ja":"ポーランド","score":5,"level":1,"lat":52.201,"lon":20.789,"components":{"conflict":14.9,"protests":2.4,"news":0.8,"quakes":0.0},"counts":{"conflict":8,"protests":3,"news":1,"quakes":0},"top_events":[{"title":"ゼレンスキー大統領、剥奪されたポーランド最高勲章を返納","place":"ポーランド","url":"https://www.bbc.com/news/articles/c2lye7xje9yo?at_medium=RSS&at_campaign=rss"}],"rank":39,"trend":{"dod":{"delta":-9,"dir":"down"},"normal":{"deltaPct":-60,"dir":"down"},"isNew":false}},{"code":"QA","name_ja":"カタール","score":5,"level":1,"lat":25.478,"lon":51.279,"components":{"conflict":15.9,"protests":0.0,"news":0.0,"quakes":0.0},"counts":{"conflict":5,"protests":0,"news":0,"quakes":0},"top_events":[],"rank":40,"trend":{"dod":{"delta":-1,"dir":"flat"},"normal":{"deltaPct":-33,"dir":"down"},"isNew":false}},{"code":"WE","name_ja":"ヨルダン川西岸","score":5,"level":1,"lat":32.139,"lon":35.292,"components":{"conflict":17.6,"protests":0.0,"news":0.0,"quakes":0.0},"counts":{"conflict":5,"protests":0,"news":0,"quakes":0},"top_events":[],"rank":41,"trend":{"dod":{"delta":0,"dir":"flat"},"normal":{"deltaPct":0,"dir":"flat"},"isNew":false}},{"code":"RW","name_ja":"ルワンダ","score":5,"level":1,"lat":-1.989,"lon":30.053,"components":{"conflict":16.2,"protests":0.0,"news":0.0,"quakes":0.0},"counts":{"conflict":4,"protests":0,"news":0,"quakes":0},"top_events":[],"rank":42,"trend":{"dod":null,"normal":null,"isNew":true}},{"code":"VE","name_ja":"ベネズエラ","score":4,"level":1,"lat":8.421,"lon":-66.387,"components":{"conflict":12.1,"protests":0.0,"news":0.0,"quakes":0.0},"counts":{"conflict":5,"protests":0,"news":0,"quakes":0},"top_events":[],"rank":43,"trend":{"dod":{"delta":0,"dir":"flat"},"normal":{"deltaPct":0,"dir":"flat"},"isNew":false}},{"code":"TH","name_ja":"タイ","score":4,"level":1,"lat":16.773,"lon":99.94,"components":{"conflict":13.6,"protests":0.0,"news":0.0,"quakes":0.0},"counts":{"conflict":4,"protests":0,"news":0,"quakes":0},"top_events":[],"rank":44,"trend":{"dod":null,"normal":null,"isNew":true}},{"code":"NG","name_ja":"ニジェール","score":4,"level":1,"lat":13.517,"lon":2.117,"components":{"conflict":13.2,"protests":0.0,"news":0.0,"quakes":0.0},"counts":{"conflict":2,"protests":0,"news":0,"quakes":0},"top_events":[],"rank":45,"trend":{"dod":{"delta":0,"dir":"flat"},"normal":{"deltaPct":-20,"dir":"down"},"isNew":false}},{"code":"CO","name_ja":"コロンビア","score":3,"level":1,"lat":2.61,"lon":-77.045,"components":{"conflict":0.0,"protests":4.1,"news":4.5,"quakes":0.0},"counts":{"conflict":0,"protests":4,"news":4,"quakes":0},"top_events":[{"title":"コロンビア大統領決選投票、トランプ支持の強硬派と左派議員が対立","place":"コロンビア","url":"https://www.france24.com/en/americas/20260621-high-stakes-colombia-vote-sees-trump-backed-hardliner-face-leftist-senator"},{"title":"コロンビア大統領決選投票、左派対強硬派の対決へ","place":"コロンビア","url":"https://www.aljazeera.com/news/2026/6/21/colombians-to-vote-in-presidential-run-off-pitting-leftist-against-hardliner?traffic_source=rss"},{"title":"コロンビアの大統領選を左右する、激化する残忍な内紛","place":"コロンビア","url":"https://www.bbc.com/news/articles/cvgqv8q1ndpo?at_medium=RSS&at_campaign=rss"}],"rank":46,"trend":{"dod":{"delta":-8,"dir":"down"},"normal":{"deltaPct":-77,"dir":"down"},"isNew":false}},{"code":"GM","name_ja":"ドイツ","score":3,"level":1,"lat":51.806,"lon":11.286,"components":{"conflict":7.7,"protests":1.9,"news":0.0,"quakes":0.0},"counts":{"conflict":4,"protests":2,"news":0,"quakes":0},"top_events":[],"rank":47,"trend":{"dod":{"delta":-9,"dir":"down"},"normal":{"deltaPct":-78,"dir":"down"},"isNew":false}},{"code":"BL","name_ja":"ボリビア","score":3,"level":1,"lat":-16.668,"lon":-65.723,"components":{"conflict":0.0,"protests":4.1,"news":4.5,"quakes":0.0},"counts":{"conflict":0,"protests":3,"news":3,"quakes":0},"top_events":[{"title":"ボリビア大統領が非常事態を宣言し、反政府デモ鎮圧のため軍を展開","place":"ボリビア","url":"https://www.theguardian.com/world/2026/jun/21/bolivian-president-declares-state-of-emergency-and-deploys-military-to-quell-anti-government-protests"},{"title":"ボリビア大統領が非常事態宣言","place":"ボリビア","url":"https://www.bbc.com/news/articles/cr47wn92zdgo?at_medium=RSS&at_campaign=rss"},{"title":"ボリビア、非常事態宣言後の抗議活動阻止のため軍を展開","place":"ボリビア（ラパス）","url":"https://www.france24.com/en/bolivia-deploys-army-to-halt-protests-after-declaration-of-state-of-emergency"}],"rank":48,"trend":{"dod":{"delta":-5,"dir":"down"},"normal":{"deltaPct":-65,"dir":"down"},"isNew":false}},{"code":"BN","name_ja":"ベナン","score":3,"level":1,"lat":9.5,"lon":2.25,"components":{"conflict":9.2,"protests":2.4,"news":0.0,"quakes":0.0},"counts":{"conflict":4,"protests":1,"news":0,"quakes":0},"top_events":[],"rank":49,"trend":{"dod":{"delta":-1,"dir":"flat"},"normal":{"deltaPct":100,"dir":"up"},"isNew":false}},{"code":"SP","name_ja":"スペイン","score":3,"level":1,"lat":40.229,"lon":0.204,"components":{"conflict":11.5,"protests":0.3,"news":0.0,"quakes":0.0},"counts":{"conflict":4,"protests":1,"news":0,"quakes":0},"top_events":[],"rank":50,"trend":{"dod":{"delta":0,"dir":"flat"},"normal":{"deltaPct":-65,"dir":"down"},"isNew":false}},{"code":"BO","name_ja":"ベラルーシ","score":3,"level":1,"lat":55.168,"lon":27.583,"components":{"conflict":10.5,"protests":0.0,"news":0.0,"quakes":0.0},"counts":{"conflict":4,"protests":0,"news":0,"quakes":0},"top_events":[],"rank":51,"trend":{"dod":{"delta":0,"dir":"flat"},"normal":{"deltaPct":0,"dir":"flat"},"isNew":false}},{"code":"UG","name_ja":"ウガンダ","score":3,"level":1,"lat":0.316,"lon":32.566,"components":{"conflict":9.3,"protests":0.0,"news":0.0,"quakes":0.0},"counts":{"conflict":4,"protests":0,"news":0,"quakes":0},"top_events":[],"rank":52,"trend":{"dod":null,"normal":null,"isNew":true}},{"code":"JM","name_ja":"ジャマイカ","score":3,"level":1,"lat":17.983,"lon":-77.3,"components":{"conflict":9.7,"protests":0.0,"news":0.0,"quakes":0.0},"counts":{"conflict":2,"protests":0,"news":0,"quakes":0},"top_events":[],"rank":53,"trend":{"dod":{"delta":2,"dir":"flat"},"normal":{"deltaPct":200,"dir":"up"},"isNew":false}},{"code":"EG","name_ja":"エジプト","score":2,"level":1,"lat":28.565,"lon":29.97,"components":{"conflict":6.7,"protests":0.5,"news":0.0,"quakes":0.0},"counts":{"conflict":3,"protests":1,"news":0,"quakes":0},"top_events":[],"rank":54,"trend":{"dod":{"delta":-6,"dir":"down"},"normal":{"deltaPct":-60,"dir":"down"},"isNew":false}},{"code":"NL","name_ja":"オランダ","score":2,"level":1,"lat":52.5,"lon":5.75,"components":{"conflict":4.9,"protests":2.3,"news":0.0,"quakes":0.0},"counts":{"conflict":1,"protests":3,"news":0,"quakes":0},"top_events":[],"rank":55,"trend":{"dod":{"delta":-4,"dir":"flat"},"normal":{"deltaPct":-60,"dir":"down"},"isNew":false}},{"code":"TU","name_ja":"トルコ","score":2,"level":1,"lat":39.059,"lon":34.912,"components":{"conflict":4.9,"protests":1.7,"news":0.0,"quakes":0.0},"counts":{"conflict":2,"protests":2,"news":0,"quakes":0},"top_events":[],"rank":56,"trend":{"dod":{"delta":-2,"dir":"flat"},"normal":{"deltaPct":-43,"dir":"down"},"isNew":false}},{"code":"GQ","name_ja":"グアム","score":2,"level":1,"lat":13.261,"lon":145.096,"components":{"conflict":6.8,"protests":0.0,"news":0.0,"quakes":0.0},"counts":{"conflict":4,"protests":0,"news":0,"quakes":0},"top_events":[],"rank":57,"trend":{"dod":null,"normal":null,"isNew":true}},{"code":"DR","name_ja":"ドミニカ共和国","score":2,"level":1,"lat":18.368,"lon":-68.84,"components":{"conflict":7.9,"protests":0.0,"news":0.0,"quakes":0.0},"counts":{"conflict":3,"protests":0,"news":0,"quakes":0},"top_events":[],"rank":58,"trend":{"dod":{"delta":-10,"dir":"down"},"normal":{"deltaPct":-82,"dir":"down"},"isNew":false}},{"code":"NP","name_ja":"ネパール","score":2,"level":1,"lat":27.675,"lon":85.061,"components":{"conflict":4.6,"protests":1.6,"news":0.0,"quakes":0.0},"counts":{"conflict":2,"protests":1,"news":0,"quakes":0},"top_events":[],"rank":59,"trend":{"dod":null,"normal":null,"isNew":true}},{"code":"NO","name_ja":"ノルウェー","score":2,"level":1,"lat":62.0,"lon":10.0,"components":{"conflict":6.0,"protests":0.0,"news":0.0,"quakes":0.0},"counts":{"conflict":2,"protests":0,"news":0,"quakes":0},"top_events":[],"rank":60,"trend":{"dod":{"delta":-6,"dir":"down"},"normal":{"deltaPct":-75,"dir":"down"},"isNew":false}},{"code":"AR","name_ja":"アルゼンチン","score":2,"level":1,"lat":-34.0,"lon":-64.0,"components":{"conflict":6.0,"protests":0.0,"news":0.0,"quakes":0.0},"counts":{"conflict":2,"protests":0,"news":0,"quakes":0},"top_events":[],"rank":61,"trend":{"dod":{"delta":0,"dir":"flat"},"normal":{"deltaPct":0,"dir":"flat"},"isNew":false}},{"code":"WA","name_ja":"ナミビア","score":2,"level":1,"lat":-22.549,"lon":17.073,"components":{"conflict":6.0,"protests":0.0,"news":0.0,"quakes":0.0},"counts":{"conflict":2,"protests":0,"news":0,"quakes":0},"top_events":[],"rank":62,"trend":{"dod":null,"normal":null,"isNew":true}},{"code":"MI","name_ja":"マラウイ","score":2,"level":1,"lat":-13.715,"lon":33.904,"components":{"conflict":6.0,"protests":0.0,"news":0.0,"quakes":0.0},"counts":{"conflict":2,"protests":0,"news":0,"quakes":0},"top_events":[],"rank":63,"trend":{"dod":{"delta":0,"dir":"flat"},"normal":{"deltaPct":0,"dir":"flat"},"isNew":false}},{"code":"HA","name_ja":"ハイチ","score":2,"level":1,"lat":19.0,"lon":-72.417,"components":{"conflict":6.8,"protests":0.0,"news":0.0,"quakes":0.0},"counts":{"conflict":2,"protests":0,"news":0,"quakes":0},"top_events":[],"rank":64,"trend":{"dod":{"delta":2,"dir":"flat"},"normal":{"deltaPct":200,"dir":"up"},"isNew":false}},{"code":"TD","name_ja":"トリニダード・トバゴ","score":2,"level":1,"lat":11.0,"lon":-61.0,"components":{"conflict":5.2,"protests":0.0,"news":0.0,"quakes":0.0},"counts":{"conflict":2,"protests":0,"news":0,"quakes":0},"top_events":[],"rank":65,"trend":{"dod":null,"normal":null,"isNew":true}},{"code":"LY","name_ja":"リビア","score":2,"level":1,"lat":25.0,"lon":17.0,"components":{"conflict":5.7,"protests":0.0,"news":0.0,"quakes":0.0},"counts":{"conflict":2,"protests":0,"news":0,"quakes":0},"top_events":[],"rank":66,"trend":{"dod":null,"normal":null,"isNew":true}},{"code":"AY","name_ja":"南極","score":2,"level":1,"lat":-85.622,"lon":32.344,"components":{"conflict":7.8,"protests":0.0,"news":0.0,"quakes":0.0},"counts":{"conflict":2,"protests":0,"news":0,"quakes":0},"top_events":[],"rank":67,"trend":{"dod":null,"normal":null,"isNew":true}},{"code":"OD","name_ja":"南スーダン","score":2,"level":1,"lat":8.6,"lon":33.917,"components":{"conflict":6.9,"protests":0.0,"news":0.0,"quakes":0.0},"counts":{"conflict":1,"protests":0,"news":0,"quakes":0},"top_events":[],"rank":68,"trend":{"dod":null,"normal":{"deltaPct":100,"dir":"up"},"isNew":false}},{"code":"KS","name_ja":"韓国","score":2,"level":1,"lat":35.103,"lon":129.04,"components":{"conflict":5.3,"protests":0.0,"news":0.0,"quakes":0.0},"counts":{"conflict":1,"protests":0,"news":0,"quakes":0},"top_events":[],"rank":69,"trend":{"dod":null,"normal":null,"isNew":true}},{"code":"IZ","name_ja":"イラク","score":2,"level":1,"lat":36.593,"lon":42.163,"components":{"conflict":6.4,"protests":0.0,"news":0.0,"quakes":0.0},"counts":{"conflict":1,"protests":0,"news":0,"quakes":0},"top_events":[],"rank":70,"trend":{"dod":null,"normal":null,"isNew":true}},{"code":"ET","name_ja":"エチオピア","score":2,"level":1,"lat":11.167,"lon":39.167,"components":{"conflict":6.6,"protests":0.0,"news":0.0,"quakes":0.0},"counts":{"conflict":1,"protests":0,"news":0,"quakes":0},"top_events":[],"rank":71,"trend":{"dod":{"delta":-2,"dir":"flat"},"normal":{"deltaPct":-50,"dir":"down"},"isNew":false}},{"code":"BE","name_ja":"ベルギー","score":1,"level":1,"lat":50.833,"lon":4.116,"components":{"conflict":0.0,"protests":3.0,"news":0.0,"quakes":0.0},"counts":{"conflict":0,"protests":5,"news":0,"quakes":0},"top_events":[],"rank":72,"trend":{"dod":{"delta":-2,"dir":"flat"},"normal":{"deltaPct":-67,"dir":"down"},"isNew":false}},{"code":"LU","name_ja":"ルクセンブルク","score":1,"level":1,"lat":49.75,"lon":6.167,"components":{"conflict":0.0,"protests":2.9,"news":0.0,"quakes":0.0},"counts":{"conflict":0,"protests":4,"news":0,"quakes":0},"top_events":[],"rank":73,"trend":{"dod":{"delta":0,"dir":"flat"},"normal":{"deltaPct":0,"dir":"flat"},"isNew":false}},{"code":"TW","name_ja":"台湾","score":1,"level":1,"lat":24.51,"lon":121.134,"components":{"conflict":2.6,"protests":1.4,"news":0.0,"quakes":0.0},"counts":{"conflict":1,"protests":2,"news":0,"quakes":0},"top_events":[],"rank":74,"trend":{"dod":null,"normal":null,"isNew":true}},{"code":"AG","name_ja":"アルジェリア","score":1,"level":1,"lat":30.14,"lon":3.012,"components":{"conflict":1.4,"protests":3.5,"news":0.0,"quakes":0.0},"counts":{"conflict":1,"protests":2,"news":0,"quakes":0},"top_events":[],"rank":75,"trend":{"dod":{"delta":0,"dir":"flat"},"normal":{"deltaPct":0,"dir":"flat"},"isNew":false}},{"code":"PE","name_ja":"ペルー","score":1,"level":1,"lat":-10.911,"lon":-76.574,"components":{"conflict":0.0,"protests":2.7,"news":0.0,"quakes":1.4},"counts":{"conflict":0,"protests":2,"news":0,"quakes":1},"top_events":[{"title":"M4.7 地震","place":"16 km E of Torata, Peru","url":"https://earthquake.usgs.gov/earthquakes/eventpage/us7000suyj"}],"rank":76,"trend":{"dod":null,"normal":null,"isNew":true}},{"code":"TZ","name_ja":"タンザニア","score":1,"level":1,"lat":-4.415,"lon":37.871,"components":{"conflict":3.1,"protests":1.9,"news":0.0,"quakes":0.0},"counts":{"conflict":1,"protests":1,"news":0,"quakes":0},"top_events":[],"rank":77,"trend":{"dod":{"delta":0,"dir":"flat"},"normal":{"deltaPct":0,"dir":"flat"},"isNew":false}},{"code":"TX","name_ja":"トルクメニスタン","score":1,"level":1,"lat":37.766,"lon":60.481,"components":{"conflict":2.5,"protests":2.5,"news":0.0,"quakes":0.0},"counts":{"conflict":1,"protests":1,"news":0,"quakes":0},"top_events":[],"rank":78,"trend":{"dod":{"delta":-1,"dir":"flat"},"normal":{"deltaPct":0,"dir":"flat"},"isNew":false}},{"code":"AJ","name_ja":"アゼルバイジャン","score":1,"level":1,"lat":40.395,"lon":49.882,"components":{"conflict":3.9,"protests":0.0,"news":0.0,"quakes":0.0},"counts":{"conflict":2,"protests":0,"news":0,"quakes":0},"top_events":[],"rank":79,"trend":{"dod":{"delta":-1,"dir":"flat"},"normal":{"deltaPct":-50,"dir":"down"},"isNew":false}},{"code":"EZ","name_ja":"チェコ","score":1,"level":1,"lat":50.081,"lon":14.46,"components":{"conflict":0.0,"protests":2.5,"news":1.5,"quakes":0.0},"counts":{"conflict":0,"protests":1,"news":1,"quakes":0},"top_events":[{"title":"ゼレンスキー大統領、ポーランドの最高勲章を返却し対立が深刻化","place":"プラハ（ウクライナ・ポーランド関連）","url":"https://www.dw.com/en/zelenskyy-returns-poland-s-highest-honor-as-row-deepens/a-77637366?maca=en-rss-en-world-4025-rdf"}],"rank":80,"trend":{"dod":null,"normal":null,"isNew":true}},{"code":"HK","name_ja":"香港","score":1,"level":1,"lat":22.25,"lon":114.167,"components":{"conflict":1.8,"protests":0.0,"news":0.0,"quakes":0.0},"counts":{"conflict":1,"protests":0,"news":0,"quakes":0},"top_events":[],"rank":81,"trend":{"dod":null,"normal":null,"isNew":true}},{"code":"CY","name_ja":"キプロス","score":1,"level":1,"lat":35.0,"lon":33.0,"components":{"conflict":3.6,"protests":0.0,"news":0.0,"quakes":0.0},"counts":{"conflict":1,"protests":0,"news":0,"quakes":0},"top_events":[],"rank":82,"trend":{"dod":{"delta":0,"dir":"flat"},"normal":{"deltaPct":0,"dir":"flat"},"isNew":false}},{"code":"PM","name_ja":"パナマ","score":1,"level":1,"lat":8.967,"lon":-79.533,"components":{"conflict":3.3,"protests":0.0,"news":0.0,"quakes":0.0},"counts":{"conflict":1,"protests":0,"news":0,"quakes":0},"top_events":[],"rank":83,"trend":{"dod":null,"normal":null,"isNew":true}},{"code":"PO","name_ja":"ポルトガル","score":1,"level":1,"lat":39.5,"lon":-8.0,"components":{"conflict":3.2,"protests":0.0,"news":0.0,"quakes":0.0},"counts":{"conflict":1,"protests":0,"news":0,"quakes":0},"top_events":[],"rank":84,"trend":{"dod":null,"normal":null,"isNew":true}},{"code":"BD","name_ja":"バミューダ","score":1,"level":1,"lat":32.333,"lon":-64.75,"components":{"conflict":2.2,"protests":0.0,"news":0.0,"quakes":0.0},"counts":{"conflict":1,"protests":0,"news":0,"quakes":0},"top_events":[],"rank":85,"trend":{"dod":{"delta":-2,"dir":"flat"},"normal":{"deltaPct":-67,"dir":"down"},"isNew":false}},{"code":"SA","name_ja":"サウジアラビア","score":1,"level":1,"lat":25.0,"lon":45.0,"components":{"conflict":4.2,"protests":0.0,"news":0.0,"quakes":0.0},"counts":{"conflict":1,"protests":0,"news":0,"quakes":0},"top_events":[],"rank":86,"trend":{"dod":{"delta":0,"dir":"flat"},"normal":{"deltaPct":0,"dir":"flat"},"isNew":false}},{"code":"SW","name_ja":"スウェーデン","score":1,"level":1,"lat":62.0,"lon":15.0,"components":{"conflict":2.4,"protests":0.0,"news":0.0,"quakes":0.0},"counts":{"conflict":1,"protests":0,"news":0,"quakes":0},"top_events":[],"rank":87,"trend":{"dod":{"delta":0,"dir":"flat"},"normal":{"deltaPct":0,"dir":"flat"},"isNew":false}},{"code":"DA","name_ja":"デンマーク","score":1,"level":1,"lat":55.674,"lon":12.595,"components":{"conflict":0.0,"protests":2.4,"news":0.0,"quakes":0.0},"counts":{"conflict":0,"protests":1,"news":0,"quakes":0},"top_events":[],"rank":88,"trend":{"dod":{"delta":1,"dir":"flat"},"normal":{"deltaPct":0,"dir":"flat"},"isNew":false}},{"code":"GI","name_ja":"ジブラルタル","score":0,"level":1,"lat":36.133,"lon":-5.35,"components":{"conflict":0.0,"protests":1.4,"news":0.0,"quakes":0.0},"counts":{"conflict":0,"protests":2,"news":0,"quakes":0},"top_events":[],"rank":89,"trend":{"dod":{"delta":0,"dir":"flat"},"normal":{"deltaPct":0,"dir":"flat"},"isNew":false}},{"code":"OS","name_ja":"OS","score":0,"level":1,"lat":43.0,"lon":35.0,"components":{"conflict":1.5,"protests":0.0,"news":0.0,"quakes":0.0},"counts":{"conflict":1,"protests":0,"news":0,"quakes":0},"top_events":[],"rank":90,"trend":{"dod":null,"normal":null,"isNew":true}},{"code":"KG","name_ja":"キルギス","score":0,"level":1,"lat":41.0,"lon":75.0,"components":{"conflict":1.3,"protests":0.0,"news":0.0,"quakes":0.0},"counts":{"conflict":1,"protests":0,"news":0,"quakes":0},"top_events":[],"rank":91,"trend":{"dod":null,"normal":null,"isNew":true}},{"code":"SI","name_ja":"スロベニア","score":0,"level":1,"lat":46.25,"lon":15.167,"components":{"conflict":0.0,"protests":1.3,"news":0.0,"quakes":0.0},"counts":{"conflict":0,"protests":1,"news":0,"quakes":0},"top_events":[],"rank":92,"trend":{"dod":null,"normal":null,"isNew":true}},{"code":"RB","name_ja":"RB","score":0,"level":1,"lat":44.819,"lon":20.468,"components":{"conflict":0.0,"protests":0.7,"news":0.0,"quakes":0.0},"counts":{"conflict":0,"protests":1,"news":0,"quakes":0},"top_events":[],"rank":93,"trend":{"dod":null,"normal":null,"isNew":true}},{"code":"ES","name_ja":"エルサルバドル","score":0,"level":1,"lat":13.833,"lon":-88.917,"components":{"conflict":0.0,"protests":0.3,"news":0.0,"quakes":0.0},"counts":{"conflict":0,"protests":1,"news":0,"quakes":0},"top_events":[],"rank":94,"trend":{"dod":null,"normal":null,"isNew":true}},{"code":"GH","name_ja":"ガーナ","score":0,"level":1,"lat":5.55,"lon":-0.217,"components":{"conflict":0.0,"protests":0.8,"news":0.0,"quakes":0.0},"counts":{"conflict":0,"protests":1,"news":0,"quakes":0},"top_events":[],"rank":95,"trend":{"dod":{"delta":-2,"dir":"flat"},"normal":{"deltaPct":-100,"dir":"down"},"isNew":false}},{"code":"MO","name_ja":"モロッコ","score":0,"level":1,"lat":33.59,"lon":-7.61,"components":{"conflict":0.0,"protests":1.5,"news":0.0,"quakes":0.0},"counts":{"conflict":0,"protests":1,"news":0,"quakes":0},"top_events":[],"rank":96,"trend":{"dod":{"delta":0,"dir":"flat"},"normal":{"deltaPct":0,"dir":"flat"},"isNew":false}},{"code":"MU","name_ja":"オマーン","score":0,"level":1,"lat":26.137,"lon":56.258,"components":{"conflict":0.0,"protests":0.0,"news":1.5,"quakes":0.0},"counts":{"conflict":0,"protests":0,"news":1,"quakes":0},"top_events":[{"title":"中東情勢: テヘランがホルムズ海峡の閉鎖を表明する中、米国とイランがスイスで協議を開始","place":"ホルムズ海峡（ペルシャ湾）","url":"https://www.theguardian.com/world/live/2026/jun/21/iran-us-israel-war-middle-east-lebanon-peace-talks-switzerland-vance-trump-strait-of-hormuz-latest-news-updates"}],"rank":97,"trend":{"dod":{"delta":-5,"dir":"down"},"normal":{"deltaPct":-100,"dir":"down"},"isNew":false}}]}