{"updated":"2026-06-20T20:12:02Z","model":"claude-haiku-4-5","thresholds":{"mag_min":4.5,"top_n":8},"countries":[{"code":"US","name_ja":"アメリカ","score":100,"level":5,"lat":37.218,"lon":-90.841,"components":{"conflict":1510.4,"protests":56.0,"news":0.0,"quakes":0.0},"counts":{"conflict":460,"protests":47,"news":0,"quakes":0},"top_events":[],"rank":1,"trend":{"dod":null,"normal":{"deltaPct":0,"dir":"flat"},"isNew":false},"narrative_ja":"紛争件数460件と極めて多数の紛争が記録されている。"},{"code":"IS","name_ja":"イスラエル","score":100,"level":5,"lat":31.627,"lon":34.732,"components":{"conflict":1061.6,"protests":16.5,"news":0.0,"quakes":0.0},"counts":{"conflict":291,"protests":16,"news":0,"quakes":0},"top_events":[],"rank":2,"trend":{"dod":null,"normal":{"deltaPct":0,"dir":"flat"},"isNew":false},"narrative_ja":"紛争件数291件と多数の紛争が記録されている。"},{"code":"IN","name_ja":"インド","score":100,"level":5,"lat":24.495,"lon":78.15,"components":{"conflict":567.1,"protests":61.0,"news":0.0,"quakes":0.0},"counts":{"conflict":153,"protests":47,"news":0,"quakes":0},"top_events":[],"rank":3,"trend":{"dod":null,"normal":{"deltaPct":0,"dir":"flat"},"isNew":false},"narrative_ja":"紛争件数153件と多数の紛争が記録されている。"},{"code":"LE","name_ja":"レバノン","score":100,"level":5,"lat":33.692,"lon":35.667,"components":{"conflict":481.7,"protests":2.6,"news":7.5,"quakes":0.0},"counts":{"conflict":157,"protests":2,"news":5,"quakes":0},"top_events":[{"title":"イスラエルとヒズボラが致命的な衝突後に停戦を更新、イラン協議の開始を中断","place":"レバノン・イスラエル国境地帯","url":"https://www.theguardian.com/world/2026/jun/19/israel-hezbollah-renew-ceasefire-lebanon-us-iran-agreement"},{"title":"イスラエルがレバノンへの爆撃を続ければ、ドナルド・トランプの支持を失う可能性があるのか","place":"レバノン","url":"https://www.france24.com/en/could-israel-lose-donald-trump-s-support-by-continuing-to-drop-bombs-in-lebanon"},{"title":"英国、イスラエル閣僚のレバノンに関する過激な発言を非難","place":"レバノン","url":"https://www.aljazeera.com/news/2026/6/20/uk-condemns-israeli-minister-over-inflammatory-lebanon-remarks?traffic_source=rss"}],"rank":4,"trend":{"dod":null,"normal":{"deltaPct":0,"dir":"flat"},"isNew":false},"narrative_ja":"紛争件数157件に加え、イスラエルとヒズボラの致命的衝突と停戦更新が記録されている。"},{"code":"UK","name_ja":"イギリス","score":100,"level":5,"lat":53.21,"lon":-2.477,"components":{"conflict":408.9,"protests":21.4,"news":1.4,"quakes":0.0},"counts":{"conflict":114,"protests":13,"news":1,"quakes":0},"top_events":[{"title":"ベッドフォード列車衝突事故、運転士が死亡、9人が重篤な状態","place":"ベッドフォード、イギリス","url":"https://www.theguardian.com/uk-news/2026/jun/20/bedford-train-crash-passenger-carriage-injured-hospital-treatment"}],"rank":5,"trend":{"dod":null,"normal":{"deltaPct":0,"dir":"flat"},"isNew":false},"narrative_ja":"紛争件数114件に加え、列車衝突事故による死傷者が記録されている。"},{"code":"RS","name_ja":"ロシア","score":100,"level":5,"lat":53.967,"lon":53.913,"components":{"conflict":329.2,"protests":9.5,"news":0.0,"quakes":0.0},"counts":{"conflict":85,"protests":10,"news":0,"quakes":0},"top_events":[],"rank":6,"trend":{"dod":null,"normal":{"deltaPct":0,"dir":"flat"},"isNew":false},"narrative_ja":"紛争件数85件が記録されている。"},{"code":"IR","name_ja":"イラン","score":98,"level":5,"lat":33.711,"lon":52.653,"components":{"conflict":268.0,"protests":50.5,"news":3.0,"quakes":0.0},"counts":{"conflict":87,"protests":33,"news":3,"quakes":0},"top_events":[{"title":"ガザでのイスラエル攻撃でアルジャジーラのカメラマン、アハメド・ウィシャ氏が殺害される","place":"ガザ","url":"https://www.aljazeera.com/news/2026/6/20/al-jazeera-cameraman-ahmad-wishah-killed-in-israeli-attack-in-gaza?traffic_source=rss"},{"title":"イランが米国のMOU公約違反時には「相互的行動」を警告","place":"イラン","url":"https://www.aljazeera.com/video/newsfeed/2026/6/20/iran-warns-of-reciprocal-action-if-us-doesnt-honour-mou-commitments?traffic_source=rss"},{"title":"イランの政治派閥は米国の平和協定についてどのような立場をとっているのか","place":"イラン","url":"https://www.aljazeera.com/news/2026/6/20/where-do-irans-political-factions-stand-on-the-us-peace-deal?traffic_source=rss"}],"rank":7,"trend":{"dod":null,"normal":{"deltaPct":-1,"dir":"flat"},"isNew":false},"narrative_ja":"紛争件数87件に加え、抗議33件と報道3件が記録されている。"},{"code":"UP","name_ja":"ウクライナ","score":85,"level":5,"lat":49.163,"lon":32.601,"components":{"conflict":275.9,"protests":3.5,"news":0.8,"quakes":0.0},"counts":{"conflict":85,"protests":4,"news":1,"quakes":0},"top_events":[{"title":"ゼレンスキー大統領ら、第二次世界大戦の歴史問題でポーランドの勲章を返却","place":"ウクライナ（キーウ）","url":"https://www.aljazeera.com/news/2026/6/20/top-ukrainian-officials-return-polish-awards-in-wwii-dispute?traffic_source=rss"}],"rank":8,"trend":{"dod":null,"normal":{"deltaPct":-9,"dir":"flat"},"isNew":false},"narrative_ja":"紛争件数85件に加え、歴史問題をめぐる国家間の対立が記録されている。"},{"code":"PK","name_ja":"パキスタン","score":79,"level":4,"lat":32.387,"lon":71.698,"components":{"conflict":228.9,"protests":29.1,"news":0.0,"quakes":0.0},"counts":{"conflict":46,"protests":20,"news":0,"quakes":0},"top_events":[],"rank":9,"trend":{"dod":null,"normal":{"deltaPct":-5,"dir":"flat"},"isNew":false}},{"code":"NI","name_ja":"ナイジェリア","score":38,"level":2,"lat":9.778,"lon":5.648,"components":{"conflict":119.0,"protests":6.5,"news":0.0,"quakes":0.0},"counts":{"conflict":37,"protests":6,"news":0,"quakes":0},"top_events":[],"rank":10,"trend":{"dod":null,"normal":{"deltaPct":-57,"dir":"down"},"isNew":false}},{"code":"CA","name_ja":"カナダ","score":36,"level":2,"lat":47.995,"lon":-86.332,"components":{"conflict":110.3,"protests":7.1,"news":0.0,"quakes":0.0},"counts":{"conflict":33,"protests":6,"news":0,"quakes":0},"top_events":[],"rank":11,"trend":{"dod":null,"normal":{"deltaPct":85,"dir":"up"},"isNew":false}},{"code":"BG","name_ja":"バングラデシュ","score":30,"level":2,"lat":24.528,"lon":89.782,"components":{"conflict":43.4,"protests":55.3,"news":0.0,"quakes":0.0},"counts":{"conflict":10,"protests":30,"news":0,"quakes":0},"top_events":[],"rank":12,"trend":{"dod":null,"normal":{"deltaPct":-29,"dir":"down"},"isNew":false}},{"code":"FR","name_ja":"フランス","score":28,"level":2,"lat":48.026,"lon":1.923,"components":{"conflict":70.7,"protests":20.9,"news":0.0,"quakes":0.0},"counts":{"conflict":17,"protests":16,"news":0,"quakes":0},"top_events":[],"rank":13,"trend":{"dod":null,"normal":{"deltaPct":27,"dir":"up"},"isNew":false}},{"code":"AF","name_ja":"アフガニスタン","score":27,"level":2,"lat":33.963,"lon":67.246,"components":{"conflict":89.2,"protests":0.0,"news":0.0,"quakes":0.0},"counts":{"conflict":19,"protests":0,"news":0,"quakes":0},"top_events":[],"rank":14,"trend":{"dod":null,"normal":{"deltaPct":-23,"dir":"down"},"isNew":false}},{"code":"SF","name_ja":"南アフリカ","score":22,"level":2,"lat":-32.296,"lon":21.773,"components":{"conflict":55.4,"protests":16.4,"news":0.8,"quakes":0.0},"counts":{"conflict":13,"protests":17,"news":1,"quakes":0},"top_events":[{"title":"米国、南アフリカのHIVプログラムへの資金提供を停止","place":"南アフリカ","url":"https://www.bbc.com/news/articles/cdr457lxr71o?at_medium=RSS&at_campaign=rss"}],"rank":15,"trend":{"dod":null,"normal":{"deltaPct":19,"dir":"up"},"isNew":false}},{"code":"EI","name_ja":"アイルランド","score":22,"level":2,"lat":53.044,"lon":-6.989,"components":{"conflict":67.3,"protests":5.1,"news":0.0,"quakes":0.0},"counts":{"conflict":22,"protests":4,"news":0,"quakes":0},"top_events":[],"rank":16,"trend":{"dod":null,"normal":{"deltaPct":-6,"dir":"flat"},"isNew":false}},{"code":"SY","name_ja":"シリア","score":21,"level":2,"lat":35.278,"lon":37.815,"components":{"conflict":66.4,"protests":1.9,"news":1.5,"quakes":0.0},"counts":{"conflict":12,"protests":1,"news":1,"quakes":0},"top_events":[{"title":"シリアに拘束されていたドイツ人記者が帰国、家族が明かす","place":"シリア","url":"https://www.aljazeera.com/news/2026/6/20/german-journalist-held-in-syria-back-home-family-says?traffic_source=rss"}],"rank":17,"trend":{"dod":null,"normal":{"deltaPct":20,"dir":"up"},"isNew":false}},{"code":"AS","name_ja":"オーストラリア","score":17,"level":1,"lat":-25.494,"lon":137.68,"components":{"conflict":51.8,"protests":1.9,"news":1.7,"quakes":0.0},"counts":{"conflict":16,"protests":1,"news":2,"quakes":0},"top_events":[{"title":"オーストラリアがH5N1鳥インフルエンザの初感染例を確認、ウイルスが全大陸に到達","place":"オーストラリア","url":"https://www.bbc.com/news/articles/c4gykxklvl5o?at_medium=RSS&at_campaign=rss"},{"title":"オーストラリアでH5鳥インフルエンザの初確認例","place":"オーストラリア","url":"https://www.dw.com/en/first-case-of-h5-bird-flu-confirmed-in-australia/a-77633767?maca=en-rss-en-world-4025-rdf"}],"rank":18,"trend":{"dod":null,"normal":{"deltaPct":-26,"dir":"down"},"isNew":false}},{"code":"SZ","name_ja":"スイス","score":16,"level":1,"lat":46.995,"lon":7.932,"components":{"conflict":52.0,"protests":0.9,"news":0.8,"quakes":0.0},"counts":{"conflict":17,"protests":1,"news":1,"quakes":0},"top_events":[{"title":"米国とイランがスイスで日曜日から協議開始、パキスタンが発表","place":"スイス","url":"https://www.aljazeera.com/news/2026/6/20/us-iran-talks-to-kick-off-sunday-in-switzerland-says?traffic_source=rss"}],"rank":19,"trend":{"dod":null,"normal":{"deltaPct":33,"dir":"up"},"isNew":false}},{"code":"GM","name_ja":"ドイツ","score":16,"level":1,"lat":51.428,"lon":12.065,"components":{"conflict":47.0,"protests":5.2,"news":0.0,"quakes":0.0},"counts":{"conflict":12,"protests":5,"news":0,"quakes":0},"top_events":[],"rank":20,"trend":{"dod":null,"normal":{"deltaPct":33,"dir":"up"},"isNew":false}},{"code":"CO","name_ja":"コロンビア","score":16,"level":1,"lat":2.701,"lon":-76.413,"components":{"conflict":52.0,"protests":0.0,"news":0.0,"quakes":0.0},"counts":{"conflict":15,"protests":0,"news":0,"quakes":0},"top_events":[],"rank":21,"trend":{"dod":null,"normal":{"deltaPct":23,"dir":"up"},"isNew":false}},{"code":"SP","name_ja":"スペイン","score":14,"level":1,"lat":41.391,"lon":-1.248,"components":{"conflict":43.1,"protests":0.3,"news":1.5,"quakes":0.0},"counts":{"conflict":14,"protests":1,"news":2,"quakes":0},"top_events":[{"title":"スペイン首相の妻、汚職疑惑で出国禁止命令を受ける","place":"スペイン（マドリード）","url":"https://www.aljazeera.com/news/2026/6/20/court-bans-spanish-pms-wife-from-leaving-country-amid-corruption-probe?traffic_source=rss"},{"title":"スペイン：首相の妻は汚職裁判に直面する必要があると判事が判断","place":"スペイン（マドリード）","url":"https://www.dw.com/en/spain-pm-s-wife-must-face-corruption-trial-judge-rules/a-77638811?maca=en-rss-en-world-4025-rdf"}],"rank":22,"trend":{"dod":null,"normal":{"deltaPct":211,"dir":"up"},"isNew":false}},{"code":"CH","name_ja":"中国","score":13,"level":1,"lat":35.141,"lon":105.366,"components":{"conflict":33.9,"protests":9.7,"news":0.0,"quakes":0.0},"counts":{"conflict":12,"protests":8,"news":0,"quakes":0},"top_events":[],"rank":23,"trend":{"dod":null,"normal":{"deltaPct":-28,"dir":"down"},"isNew":false}},{"code":"CU","name_ja":"キューバ","score":13,"level":1,"lat":22.456,"lon":-80.621,"components":{"conflict":33.7,"protests":9.6,"news":0.0,"quakes":0.0},"counts":{"conflict":10,"protests":6,"news":0,"quakes":0},"top_events":[],"rank":24,"trend":{"dod":null,"normal":{"deltaPct":44,"dir":"up"},"isNew":false}},{"code":"SO","name_ja":"ソマリア","score":12,"level":1,"lat":3.311,"lon":45.017,"components":{"conflict":38.7,"protests":0.0,"news":0.0,"quakes":0.0},"counts":{"conflict":6,"protests":0,"news":0,"quakes":0},"top_events":[],"rank":25,"trend":{"dod":null,"normal":{"deltaPct":-4,"dir":"flat"},"isNew":false}},{"code":"JA","name_ja":"日本","score":11,"level":1,"lat":35.88,"lon":138.705,"components":{"conflict":35.1,"protests":2.3,"news":0.0,"quakes":0.0},"counts":{"conflict":11,"protests":2,"news":0,"quakes":0},"top_events":[],"rank":26,"trend":{"dod":null,"normal":{"deltaPct":10,"dir":"flat"},"isNew":false}},{"code":"MX","name_ja":"メキシコ","score":11,"level":1,"lat":20.605,"lon":-99.108,"components":{"conflict":34.9,"protests":2.6,"news":0.0,"quakes":0.0},"counts":{"conflict":9,"protests":1,"news":0,"quakes":0},"top_events":[],"rank":27,"trend":{"dod":null,"normal":{"deltaPct":144,"dir":"up"},"isNew":false}},{"code":"RP","name_ja":"フィリピン","score":10,"level":1,"lat":12.943,"lon":121.894,"components":{"conflict":32.9,"protests":1.1,"news":0.0,"quakes":0.0},"counts":{"conflict":12,"protests":2,"news":0,"quakes":0},"top_events":[],"rank":28,"trend":{"dod":null,"normal":{"deltaPct":-38,"dir":"down"},"isNew":false}},{"code":"JM","name_ja":"ジャマイカ","score":10,"level":1,"lat":18.317,"lon":-77.552,"components":{"conflict":27.5,"protests":4.0,"news":0.0,"quakes":0.0},"counts":{"conflict":6,"protests":4,"news":0,"quakes":0},"top_events":[],"rank":29,"trend":{"dod":null,"normal":{"deltaPct":900,"dir":"up"},"isNew":false}},{"code":"BL","name_ja":"ボリビア","score":9,"level":1,"lat":-16.557,"lon":-67.529,"components":{"conflict":12.2,"protests":16.2,"news":2.2,"quakes":0.0},"counts":{"conflict":2,"protests":10,"news":2,"quakes":0},"top_events":[{"title":"ボリビア、ブロケード危機の中で非常事態を宣言","place":"ボリビア","url":"https://www.aljazeera.com/news/2026/6/20/bolivia-declares-state-of-emergency-amid-blockade-crisis?traffic_source=rss"},{"title":"ボリビア大統領が非常事態宣言を発令","place":"ボリビア","url":"https://www.bbc.com/news/articles/cr47wn92zdgo?at_medium=RSS&at_campaign=rss"}],"rank":30,"trend":{"dod":null,"normal":{"deltaPct":6,"dir":"flat"},"isNew":false}},{"code":"TW","name_ja":"台湾","score":9,"level":1,"lat":23.465,"lon":120.495,"components":{"conflict":29.3,"protests":1.4,"news":0.0,"quakes":0.0},"counts":{"conflict":9,"protests":2,"news":0,"quakes":0},"top_events":[],"rank":31,"trend":{"dod":null,"normal":null,"isNew":true}},{"code":"VM","name_ja":"ベトナム","score":9,"level":1,"lat":14.019,"lon":106.627,"components":{"conflict":27.3,"protests":0.9,"news":0.0,"quakes":0.0},"counts":{"conflict":8,"protests":1,"news":0,"quakes":0},"top_events":[],"rank":32,"trend":{"dod":null,"normal":{"deltaPct":38,"dir":"up"},"isNew":false}},{"code":"PL","name_ja":"ポーランド","score":8,"level":1,"lat":52.19,"lon":20.78,"components":{"conflict":19.6,"protests":5.2,"news":0.8,"quakes":0.0},"counts":{"conflict":8,"protests":6,"news":1,"quakes":0},"top_events":[{"title":"ゼレンスキー大統領、ポーランドの最高勲章を剥奪 第2次世界大戦時の軍部隊名をめぐって","place":"ポーランド","url":"https://www.bbc.com/news/articles/cr7xzg3dmj8o?at_medium=RSS&at_campaign=rss"}],"rank":33,"trend":{"dod":null,"normal":{"deltaPct":-43,"dir":"down"},"isNew":false}},{"code":"NZ","name_ja":"ニュージーランド","score":8,"level":1,"lat":-42.161,"lon":173.201,"components":{"conflict":27.9,"protests":0.0,"news":0.0,"quakes":0.0},"counts":{"conflict":8,"protests":0,"news":0,"quakes":0},"top_events":[],"rank":34,"trend":{"dod":null,"normal":{"deltaPct":-24,"dir":"down"},"isNew":false}},{"code":"QA","name_ja":"カタール","score":8,"level":1,"lat":25.5,"lon":51.25,"components":{"conflict":25.4,"protests":0.0,"news":0.0,"quakes":0.0},"counts":{"conflict":7,"protests":0,"news":0,"quakes":0},"top_events":[],"rank":35,"trend":{"dod":null,"normal":{"deltaPct":23,"dir":"up"},"isNew":false}},{"code":"NO","name_ja":"ノルウェー","score":8,"level":1,"lat":59.917,"lon":10.75,"components":{"conflict":26.9,"protests":0.0,"news":0.0,"quakes":0.0},"counts":{"conflict":5,"protests":0,"news":0,"quakes":0},"top_events":[],"rank":36,"trend":{"dod":null,"normal":null,"isNew":true}},{"code":"KU","name_ja":"クウェート","score":7,"level":1,"lat":29.5,"lon":47.75,"components":{"conflict":22.8,"protests":0.0,"news":0.0,"quakes":0.0},"counts":{"conflict":5,"protests":0,"news":0,"quakes":0},"top_events":[],"rank":37,"trend":{"dod":null,"normal":{"deltaPct":75,"dir":"up"},"isNew":false}},{"code":"SU","name_ja":"スーダン","score":6,"level":1,"lat":14.149,"lon":30.19,"components":{"conflict":18.1,"protests":2.3,"news":0.0,"quakes":0.0},"counts":{"conflict":8,"protests":2,"news":0,"quakes":0},"top_events":[],"rank":38,"trend":{"dod":null,"normal":{"deltaPct":-71,"dir":"down"},"isNew":false}},{"code":"DR","name_ja":"ドミニカ共和国","score":6,"level":1,"lat":18.423,"lon":-68.885,"components":{"conflict":19.5,"protests":0.0,"news":0.0,"quakes":0.0},"counts":{"conflict":6,"protests":0,"news":0,"quakes":0},"top_events":[],"rank":39,"trend":{"dod":null,"normal":{"deltaPct":-50,"dir":"down"},"isNew":false}},{"code":"LT","name_ja":"レソト","score":6,"level":1,"lat":-29.808,"lon":27.816,"components":{"conflict":21.1,"protests":0.0,"news":0.0,"quakes":0.0},"counts":{"conflict":5,"protests":0,"news":0,"quakes":0},"top_events":[],"rank":40,"trend":{"dod":null,"normal":{"deltaPct":0,"dir":"flat"},"isNew":false}},{"code":"CE","name_ja":"スリランカ","score":5,"level":1,"lat":7.06,"lon":79.913,"components":{"conflict":13.5,"protests":1.9,"news":0.0,"quakes":0.0},"counts":{"conflict":8,"protests":2,"news":0,"quakes":0},"top_events":[],"rank":41,"trend":{"dod":null,"normal":{"deltaPct":400,"dir":"up"},"isNew":false}},{"code":"IT","name_ja":"イタリア","score":5,"level":1,"lat":42.45,"lon":12.69,"components":{"conflict":11.0,"protests":5.4,"news":0.0,"quakes":0.0},"counts":{"conflict":4,"protests":6,"news":0,"quakes":0},"top_events":[],"rank":42,"trend":{"dod":null,"normal":{"deltaPct":-52,"dir":"down"},"isNew":false}},{"code":"BR","name_ja":"ブラジル","score":5,"level":1,"lat":-11.458,"lon":-39.162,"components":{"conflict":17.2,"protests":0.0,"news":0.0,"quakes":0.0},"counts":{"conflict":5,"protests":0,"news":0,"quakes":0},"top_events":[],"rank":43,"trend":{"dod":null,"normal":{"deltaPct":0,"dir":"flat"},"isNew":false}},{"code":"GZ","name_ja":"GZ","score":5,"level":1,"lat":31.43,"lon":34.365,"components":{"conflict":15.2,"protests":0.0,"news":0.0,"quakes":0.0},"counts":{"conflict":4,"protests":0,"news":0,"quakes":0},"top_events":[],"rank":44,"trend":{"dod":null,"normal":{"deltaPct":67,"dir":"up"},"isNew":false}},{"code":"BC","name_ja":"ボツワナ","score":5,"level":1,"lat":-24.432,"lon":25.967,"components":{"conflict":14.4,"protests":1.2,"news":0.0,"quakes":0.0},"counts":{"conflict":2,"protests":1,"news":0,"quakes":0},"top_events":[],"rank":45,"trend":{"dod":null,"normal":{"deltaPct":11,"dir":"flat"},"isNew":false}},{"code":"NG","name_ja":"ニジェール","score":5,"level":1,"lat":13.517,"lon":2.117,"components":{"conflict":16.4,"protests":0.0,"news":0.0,"quakes":0.0},"counts":{"conflict":2,"protests":0,"news":0,"quakes":0},"top_events":[],"rank":46,"trend":{"dod":null,"normal":{"deltaPct":11,"dir":"flat"},"isNew":false}},{"code":"ID","name_ja":"インドネシア","score":4,"level":1,"lat":-5.071,"lon":109.231,"components":{"conflict":8.2,"protests":5.7,"news":0.0,"quakes":0.0},"counts":{"conflict":4,"protests":6,"news":0,"quakes":0},"top_events":[],"rank":47,"trend":{"dod":null,"normal":{"deltaPct":-33,"dir":"down"},"isNew":false}},{"code":"AJ","name_ja":"アゼルバイジャン","score":4,"level":1,"lat":40.395,"lon":49.882,"components":{"conflict":13.9,"protests":0.0,"news":0.0,"quakes":0.0},"counts":{"conflict":8,"protests":0,"news":0,"quakes":0},"top_events":[],"rank":48,"trend":{"dod":null,"normal":{"deltaPct":100,"dir":"up"},"isNew":false}},{"code":"ZA","name_ja":"ザンビア","score":4,"level":1,"lat":-15.0,"lon":30.0,"components":{"conflict":12.5,"protests":0.0,"news":0.0,"quakes":0.0},"counts":{"conflict":7,"protests":0,"news":0,"quakes":0},"top_events":[],"rank":49,"trend":{"dod":null,"normal":{"deltaPct":300,"dir":"up"},"isNew":false}},{"code":"BO","name_ja":"ベラルーシ","score":4,"level":1,"lat":53.442,"lon":27.787,"components":{"conflict":11.7,"protests":0.0,"news":0.0,"quakes":0.0},"counts":{"conflict":7,"protests":0,"news":0,"quakes":0},"top_events":[],"rank":50,"trend":{"dod":null,"normal":{"deltaPct":33,"dir":"up"},"isNew":false}},{"code":"NL","name_ja":"オランダ","score":4,"level":1,"lat":52.538,"lon":5.378,"components":{"conflict":11.6,"protests":2.3,"news":0.0,"quakes":0.0},"counts":{"conflict":3,"protests":3,"news":0,"quakes":0},"top_events":[],"rank":51,"trend":{"dod":null,"normal":{"deltaPct":-20,"dir":"down"},"isNew":false}},{"code":"WE","name_ja":"ヨルダン川西岸","score":4,"level":1,"lat":31.789,"lon":35.222,"components":{"conflict":13.1,"protests":1.3,"news":0.0,"quakes":0.0},"counts":{"conflict":4,"protests":2,"news":0,"quakes":0},"top_events":[],"rank":52,"trend":{"dod":null,"normal":{"deltaPct":-33,"dir":"down"},"isNew":false}},{"code":"LY","name_ja":"リビア","score":4,"level":1,"lat":25.0,"lon":17.0,"components":{"conflict":12.7,"protests":0.0,"news":0.0,"quakes":0.0},"counts":{"conflict":3,"protests":0,"news":0,"quakes":0},"top_events":[],"rank":53,"trend":{"dod":null,"normal":{"deltaPct":0,"dir":"flat"},"isNew":false}},{"code":"MI","name_ja":"マラウイ","score":4,"level":1,"lat":-13.5,"lon":34.0,"components":{"conflict":12.1,"protests":0.0,"news":0.0,"quakes":0.0},"counts":{"conflict":2,"protests":0,"news":0,"quakes":0},"top_events":[],"rank":54,"trend":{"dod":null,"normal":{"deltaPct":100,"dir":"up"},"isNew":false}},{"code":"BE","name_ja":"ベルギー","score":3,"level":1,"lat":50.833,"lon":4.266,"components":{"conflict":7.9,"protests":3.5,"news":0.0,"quakes":0.0},"counts":{"conflict":2,"protests":6,"news":0,"quakes":0},"top_events":[],"rank":55,"trend":{"dod":null,"normal":{"deltaPct":0,"dir":"flat"},"isNew":false}},{"code":"JO","name_ja":"ヨルダン","score":3,"level":1,"lat":31.0,"lon":36.0,"components":{"conflict":10.5,"protests":0.0,"news":0.0,"quakes":0.0},"counts":{"conflict":5,"protests":0,"news":0,"quakes":0},"top_events":[],"rank":56,"trend":{"dod":null,"normal":{"deltaPct":-25,"dir":"down"},"isNew":false}},{"code":"MU","name_ja":"オマーン","score":3,"level":1,"lat":25.0,"lon":58.0,"components":{"conflict":11.5,"protests":0.0,"news":0.0,"quakes":0.0},"counts":{"conflict":5,"protests":0,"news":0,"quakes":0},"top_events":[],"rank":57,"trend":{"dod":null,"normal":{"deltaPct":-25,"dir":"down"},"isNew":false}},{"code":"TU","name_ja":"トルコ","score":3,"level":1,"lat":39.474,"lon":33.652,"components":{"conflict":6.7,"protests":3.6,"news":0.0,"quakes":0.0},"counts":{"conflict":2,"protests":3,"news":0,"quakes":0},"top_events":[],"rank":58,"trend":{"dod":null,"normal":{"deltaPct":-25,"dir":"down"},"isNew":false}},{"code":"AR","name_ja":"アルゼンチン","score":3,"level":1,"lat":-33.107,"lon":-59.594,"components":{"conflict":7.2,"protests":0.0,"news":0.0,"quakes":1.2},"counts":{"conflict":4,"protests":0,"news":0,"quakes":1},"top_events":[{"title":"M4.5 地震","place":"60 km WNW of Abra Pampa, Argentina","url":"https://earthquake.usgs.gov/earthquakes/eventpage/us7000suru"}],"rank":59,"trend":{"dod":null,"normal":{"deltaPct":50,"dir":"up"},"isNew":false}},{"code":"KE","name_ja":"ケニア","score":3,"level":1,"lat":-0.4,"lon":36.297,"components":{"conflict":10.7,"protests":0.0,"news":0.0,"quakes":0.0},"counts":{"conflict":4,"protests":0,"news":0,"quakes":0},"top_events":[],"rank":60,"trend":{"dod":null,"normal":{"deltaPct":50,"dir":"up"},"isNew":false}},{"code":"WA","name_ja":"ナミビア","score":3,"level":1,"lat":-20.758,"lon":25.408,"components":{"conflict":10.0,"protests":0.0,"news":0.0,"quakes":0.0},"counts":{"conflict":4,"protests":0,"news":0,"quakes":0},"top_events":[],"rank":61,"trend":{"dod":null,"normal":null,"isNew":true}},{"code":"KZ","name_ja":"カザフスタン","score":3,"level":1,"lat":48.0,"lon":68.0,"components":{"conflict":7.8,"protests":0.7,"news":0.0,"quakes":0.0},"counts":{"conflict":3,"protests":1,"news":0,"quakes":0},"top_events":[],"rank":62,"trend":{"dod":null,"normal":{"deltaPct":300,"dir":"up"},"isNew":false}},{"code":"EG","name_ja":"エジプト","score":3,"level":1,"lat":30.405,"lon":30.838,"components":{"conflict":11.2,"protests":0.0,"news":0.0,"quakes":0.0},"counts":{"conflict":4,"protests":0,"news":0,"quakes":0},"top_events":[],"rank":63,"trend":{"dod":null,"normal":{"deltaPct":-54,"dir":"down"},"isNew":false}},{"code":"AU","name_ja":"オーストリア","score":3,"level":1,"lat":47.333,"lon":13.333,"components":{"conflict":8.2,"protests":0.0,"news":0.0,"quakes":0.0},"counts":{"conflict":4,"protests":0,"news":0,"quakes":0},"top_events":[],"rank":64,"trend":{"dod":null,"normal":{"deltaPct":50,"dir":"up"},"isNew":false}},{"code":"LA","name_ja":"ラオス","score":3,"level":1,"lat":18.0,"lon":105.0,"components":{"conflict":9.3,"protests":0.0,"news":0.0,"quakes":0.0},"counts":{"conflict":3,"protests":0,"news":0,"quakes":0},"top_events":[],"rank":65,"trend":{"dod":null,"normal":null,"isNew":true}},{"code":"BD","name_ja":"バミューダ","score":3,"level":1,"lat":32.333,"lon":-64.75,"components":{"conflict":10.2,"protests":0.0,"news":0.0,"quakes":0.0},"counts":{"conflict":3,"protests":0,"news":0,"quakes":0},"top_events":[],"rank":66,"trend":{"dod":null,"normal":null,"isNew":true}},{"code":"ZI","name_ja":"ジンバブエ","score":3,"level":1,"lat":-20.23,"lon":29.03,"components":{"conflict":11.2,"protests":0.0,"news":0.0,"quakes":0.0},"counts":{"conflict":3,"protests":0,"news":0,"quakes":0},"top_events":[],"rank":67,"trend":{"dod":null,"normal":{"deltaPct":-25,"dir":"down"},"isNew":false}},{"code":"JE","name_ja":"JE","score":3,"level":1,"lat":49.217,"lon":-2.117,"components":{"conflict":10.6,"protests":0.0,"news":0.0,"quakes":0.0},"counts":{"conflict":2,"protests":0,"news":0,"quakes":0},"top_events":[],"rank":68,"trend":{"dod":null,"normal":{"deltaPct":100,"dir":"up"},"isNew":false}},{"code":"UG","name_ja":"ウガンダ","score":3,"level":1,"lat":0.741,"lon":30.042,"components":{"conflict":8.3,"protests":0.0,"news":0.0,"quakes":0.0},"counts":{"conflict":1,"protests":0,"news":0,"quakes":0},"top_events":[],"rank":69,"trend":{"dod":null,"normal":{"deltaPct":20,"dir":"up"},"isNew":false}},{"code":"VE","name_ja":"ベネズエラ","score":2,"level":1,"lat":8.0,"lon":-66.0,"components":{"conflict":7.3,"protests":0.0,"news":0.0,"quakes":0.0},"counts":{"conflict":5,"protests":0,"news":0,"quakes":0},"top_events":[],"rank":70,"trend":{"dod":null,"normal":{"deltaPct":-50,"dir":"down"},"isNew":false}},{"code":"GR","name_ja":"ギリシャ","score":2,"level":1,"lat":39.062,"lon":21.807,"components":{"conflict":7.1,"protests":0.9,"news":0.0,"quakes":0.0},"counts":{"conflict":3,"protests":1,"news":0,"quakes":0},"top_events":[],"rank":71,"trend":{"dod":null,"normal":{"deltaPct":-43,"dir":"down"},"isNew":false}},{"code":"HA","name_ja":"ハイチ","score":2,"level":1,"lat":18.62,"lon":-72.349,"components":{"conflict":6.2,"protests":1.1,"news":0.0,"quakes":0.0},"counts":{"conflict":1,"protests":2,"news":0,"quakes":0},"top_events":[],"rank":72,"trend":{"dod":null,"normal":{"deltaPct":200,"dir":"up"},"isNew":false}},{"code":"ET","name_ja":"エチオピア","score":2,"level":1,"lat":11.875,"lon":39.057,"components":{"conflict":2.0,"protests":3.7,"news":0.0,"quakes":0.0},"counts":{"conflict":1,"protests":2,"news":0,"quakes":0},"top_events":[],"rank":73,"trend":{"dod":null,"normal":{"deltaPct":-50,"dir":"down"},"isNew":false}},{"code":"GH","name_ja":"ガーナ","score":2,"level":1,"lat":6.707,"lon":-0.147,"components":{"conflict":4.0,"protests":2.1,"news":0.0,"quakes":0.0},"counts":{"conflict":1,"protests":2,"news":0,"quakes":0},"top_events":[],"rank":74,"trend":{"dod":null,"normal":{"deltaPct":0,"dir":"flat"},"isNew":false}},{"code":"AE","name_ja":"アラブ首長国連邦","score":2,"level":1,"lat":24.0,"lon":54.0,"components":{"conflict":5.8,"protests":0.0,"news":0.0,"quakes":0.0},"counts":{"conflict":2,"protests":0,"news":0,"quakes":0},"top_events":[],"rank":75,"trend":{"dod":null,"normal":null,"isNew":true}},{"code":"PM","name_ja":"パナマ","score":2,"level":1,"lat":9.0,"lon":-80.0,"components":{"conflict":5.5,"protests":0.0,"news":0.0,"quakes":0.0},"counts":{"conflict":2,"protests":0,"news":0,"quakes":0},"top_events":[],"rank":76,"trend":{"dod":null,"normal":null,"isNew":true}},{"code":"FI","name_ja":"フィンランド","score":2,"level":1,"lat":60.158,"lon":24.873,"components":{"conflict":5.0,"protests":0.0,"news":0.0,"quakes":0.0},"counts":{"conflict":1,"protests":0,"news":0,"quakes":0},"top_events":[],"rank":77,"trend":{"dod":null,"normal":null,"isNew":true}},{"code":"HO","name_ja":"ホンジュラス","score":2,"level":1,"lat":15.0,"lon":-86.5,"components":{"conflict":6.7,"protests":0.0,"news":0.0,"quakes":0.0},"counts":{"conflict":1,"protests":0,"news":0,"quakes":0},"top_events":[],"rank":78,"trend":{"dod":null,"normal":{"deltaPct":33,"dir":"up"},"isNew":false}},{"code":"HK","name_ja":"香港","score":2,"level":1,"lat":22.367,"lon":114.133,"components":{"conflict":7.2,"protests":0.0,"news":0.0,"quakes":0.0},"counts":{"conflict":1,"protests":0,"news":0,"quakes":0},"top_events":[],"rank":79,"trend":{"dod":null,"normal":{"deltaPct":-33,"dir":"down"},"isNew":false}},{"code":"NU","name_ja":"ニカラグア","score":2,"level":1,"lat":13.0,"lon":-85.0,"components":{"conflict":5.8,"protests":0.0,"news":0.0,"quakes":0.0},"counts":{"conflict":1,"protests":0,"news":0,"quakes":0},"top_events":[],"rank":80,"trend":{"dod":null,"normal":{"deltaPct":0,"dir":"flat"},"isNew":false}},{"code":"AL","name_ja":"アルバニア","score":1,"level":1,"lat":41.267,"lon":19.779,"components":{"conflict":0.0,"protests":4.7,"news":0.0,"quakes":0.0},"counts":{"conflict":0,"protests":5,"news":0,"quakes":0},"top_events":[],"rank":81,"trend":{"dod":null,"normal":{"deltaPct":0,"dir":"flat"},"isNew":false}},{"code":"LU","name_ja":"ルクセンブルク","score":1,"level":1,"lat":49.75,"lon":6.167,"components":{"conflict":0.0,"protests":2.9,"news":0.0,"quakes":0.0},"counts":{"conflict":0,"protests":4,"news":0,"quakes":0},"top_events":[],"rank":82,"trend":{"dod":null,"normal":{"deltaPct":0,"dir":"flat"},"isNew":false}},{"code":"EC","name_ja":"エクアドル","score":1,"level":1,"lat":-2.167,"lon":-79.9,"components":{"conflict":0.0,"protests":3.2,"news":0.0,"quakes":0.0},"counts":{"conflict":0,"protests":3,"news":0,"quakes":0},"top_events":[],"rank":83,"trend":{"dod":null,"normal":{"deltaPct":0,"dir":"flat"},"isNew":false}},{"code":"CY","name_ja":"キプロス","score":1,"level":1,"lat":35.016,"lon":33.022,"components":{"conflict":2.7,"protests":0.0,"news":0.0,"quakes":0.0},"counts":{"conflict":2,"protests":0,"news":0,"quakes":0},"top_events":[],"rank":84,"trend":{"dod":null,"normal":{"deltaPct":0,"dir":"flat"},"isNew":false}},{"code":"BN","name_ja":"ベナン","score":1,"level":1,"lat":9.5,"lon":2.25,"components":{"conflict":3.3,"protests":0.0,"news":0.0,"quakes":0.0},"counts":{"conflict":2,"protests":0,"news":0,"quakes":0},"top_events":[],"rank":85,"trend":{"dod":null,"normal":{"deltaPct":-67,"dir":"down"},"isNew":false}},{"code":"FG","name_ja":"仏領ギアナ","score":1,"level":1,"lat":5.155,"lon":-52.648,"components":{"conflict":4.3,"protests":0.0,"news":0.0,"quakes":0.0},"counts":{"conflict":2,"protests":0,"news":0,"quakes":0},"top_events":[],"rank":86,"trend":{"dod":null,"normal":{"deltaPct":0,"dir":"flat"},"isNew":false}},{"code":"SA","name_ja":"サウジアラビア","score":1,"level":1,"lat":24.837,"lon":45.804,"components":{"conflict":1.7,"protests":1.2,"news":0.0,"quakes":0.0},"counts":{"conflict":1,"protests":1,"news":0,"quakes":0},"top_events":[],"rank":87,"trend":{"dod":null,"normal":{"deltaPct":0,"dir":"flat"},"isNew":false}},{"code":"AG","name_ja":"アルジェリア","score":1,"level":1,"lat":28.0,"lon":3.0,"components":{"conflict":0.0,"protests":3.5,"news":0.0,"quakes":0.0},"counts":{"conflict":0,"protests":2,"news":0,"quakes":0},"top_events":[],"rank":88,"trend":{"dod":null,"normal":{"deltaPct":-33,"dir":"down"},"isNew":false}},{"code":"SW","name_ja":"スウェーデン","score":1,"level":1,"lat":60.1,"lon":17.173,"components":{"conflict":0.0,"protests":1.8,"news":0.0,"quakes":0.0},"counts":{"conflict":0,"protests":2,"news":0,"quakes":0},"top_events":[],"rank":89,"trend":{"dod":null,"normal":{"deltaPct":0,"dir":"flat"},"isNew":false}},{"code":"BX","name_ja":"ブルネイ","score":1,"level":1,"lat":15.0,"lon":115.0,"components":{"conflict":4.8,"protests":0.0,"news":0.0,"quakes":0.0},"counts":{"conflict":1,"protests":0,"news":0,"quakes":0},"top_events":[],"rank":90,"trend":{"dod":null,"normal":null,"isNew":true}},{"code":"OD","name_ja":"南スーダン","score":1,"level":1,"lat":4.846,"lon":31.601,"components":{"conflict":2.3,"protests":0.0,"news":0.0,"quakes":0.0},"counts":{"conflict":1,"protests":0,"news":0,"quakes":0},"top_events":[],"rank":91,"trend":{"dod":null,"normal":null,"isNew":true}},{"code":"CD","name_ja":"チャド","score":1,"level":1,"lat":15.0,"lon":19.0,"components":{"conflict":2.7,"protests":0.0,"news":0.0,"quakes":0.0},"counts":{"conflict":1,"protests":0,"news":0,"quakes":0},"top_events":[],"rank":92,"trend":{"dod":null,"normal":null,"isNew":true}},{"code":"TS","name_ja":"チュニジア","score":1,"level":1,"lat":34.299,"lon":10.07,"components":{"conflict":3.7,"protests":0.0,"news":0.0,"quakes":0.0},"counts":{"conflict":1,"protests":0,"news":0,"quakes":0},"top_events":[],"rank":93,"trend":{"dod":null,"normal":{"deltaPct":50,"dir":"up"},"isNew":false}},{"code":"IZ","name_ja":"イラク","score":1,"level":1,"lat":33.0,"lon":44.0,"components":{"conflict":4.1,"protests":0.0,"news":0.0,"quakes":0.0},"counts":{"conflict":1,"protests":0,"news":0,"quakes":0},"top_events":[],"rank":94,"trend":{"dod":null,"normal":{"deltaPct":-60,"dir":"down"},"isNew":false}},{"code":"CJ","name_ja":"ケイマン諸島","score":1,"level":1,"lat":19.5,"lon":-80.667,"components":{"conflict":3.4,"protests":0.0,"news":0.0,"quakes":0.0},"counts":{"conflict":1,"protests":0,"news":0,"quakes":0},"top_events":[],"rank":95,"trend":{"dod":null,"normal":{"deltaPct":0,"dir":"flat"},"isNew":false}},{"code":"KS","name_ja":"韓国","score":1,"level":1,"lat":37.566,"lon":127.0,"components":{"conflict":4.0,"protests":0.0,"news":0.0,"quakes":0.0},"counts":{"conflict":1,"protests":0,"news":0,"quakes":0},"top_events":[],"rank":96,"trend":{"dod":null,"normal":{"deltaPct":-33,"dir":"down"},"isNew":false}},{"code":"TZ","name_ja":"タンザニア","score":1,"level":1,"lat":-6.8,"lon":39.283,"components":{"conflict":0.0,"protests":1.9,"news":0.0,"quakes":0.0},"counts":{"conflict":0,"protests":1,"news":0,"quakes":0},"top_events":[],"rank":97,"trend":{"dod":null,"normal":null,"isNew":true}},{"code":"DA","name_ja":"デンマーク","score":1,"level":1,"lat":55.674,"lon":12.595,"components":{"conflict":0.0,"protests":2.4,"news":0.0,"quakes":0.0},"counts":{"conflict":0,"protests":1,"news":0,"quakes":0},"top_events":[],"rank":98,"trend":{"dod":null,"normal":{"deltaPct":50,"dir":"up"},"isNew":false}},{"code":"TX","name_ja":"トルクメニスタン","score":1,"level":1,"lat":37.618,"lon":62.167,"components":{"conflict":0.0,"protests":2.5,"news":0.0,"quakes":0.0},"counts":{"conflict":0,"protests":1,"news":0,"quakes":0},"top_events":[],"rank":99,"trend":{"dod":null,"normal":{"deltaPct":-33,"dir":"down"},"isNew":false}},{"code":"GI","name_ja":"ジブラルタル","score":0,"level":1,"lat":36.133,"lon":-5.35,"components":{"conflict":0.0,"protests":1.4,"news":0.0,"quakes":0.0},"counts":{"conflict":0,"protests":2,"news":0,"quakes":0},"top_events":[],"rank":100,"trend":{"dod":null,"normal":null,"isNew":true}},{"code":"ER","name_ja":"エリトリア","score":0,"level":1,"lat":15.333,"lon":38.933,"components":{"conflict":0.0,"protests":1.6,"news":0.0,"quakes":0.0},"counts":{"conflict":0,"protests":2,"news":0,"quakes":0},"top_events":[],"rank":101,"trend":{"dod":null,"normal":{"deltaPct":-100,"dir":"down"},"isNew":false}},{"code":"RO","name_ja":"ルーマニア","score":0,"level":1,"lat":44.433,"lon":26.1,"components":{"conflict":0.0,"protests":1.4,"news":0.0,"quakes":0.0},"counts":{"conflict":0,"protests":2,"news":0,"quakes":0},"top_events":[],"rank":102,"trend":{"dod":null,"normal":{"deltaPct":0,"dir":"flat"},"isNew":false}},{"code":"BF","name_ja":"バハマ","score":0,"level":1,"lat":25.083,"lon":-77.35,"components":{"conflict":0.0,"protests":1.5,"news":0.0,"quakes":0.0},"counts":{"conflict":0,"protests":2,"news":0,"quakes":0},"top_events":[],"rank":103,"trend":{"dod":null,"normal":{"deltaPct":-50,"dir":"down"},"isNew":false}},{"code":"CS","name_ja":"コスタリカ","score":0,"level":1,"lat":10.0,"lon":-84.0,"components":{"conflict":0.9,"protests":0.0,"news":0.0,"quakes":0.0},"counts":{"conflict":1,"protests":0,"news":0,"quakes":0},"top_events":[],"rank":104,"trend":{"dod":null,"normal":null,"isNew":true}},{"code":"DJ","name_ja":"ジブチ","score":0,"level":1,"lat":19.0,"lon":39.5,"components":{"conflict":1.6,"protests":0.0,"news":0.0,"quakes":0.0},"counts":{"conflict":1,"protests":0,"news":0,"quakes":0},"top_events":[],"rank":105,"trend":{"dod":null,"normal":{"deltaPct":-100,"dir":"down"},"isNew":false}},{"code":"PE","name_ja":"ペルー","score":0,"level":1,"lat":-10.0,"lon":-76.0,"components":{"conflict":0.9,"protests":0.0,"news":0.0,"quakes":0.0},"counts":{"conflict":1,"protests":0,"news":0,"quakes":0},"top_events":[],"rank":106,"trend":{"dod":null,"normal":{"deltaPct":0,"dir":"flat"},"isNew":false}},{"code":"ES","name_ja":"エルサルバドル","score":0,"level":1,"lat":13.833,"lon":-88.917,"components":{"conflict":0.0,"protests":0.3,"news":0.0,"quakes":0.0},"counts":{"conflict":0,"protests":1,"news":0,"quakes":0},"top_events":[],"rank":107,"trend":{"dod":null,"normal":null,"isNew":true}},{"code":"NP","name_ja":"ネパール","score":0,"level":1,"lat":27.717,"lon":85.317,"components":{"conflict":0.0,"protests":1.6,"news":0.0,"quakes":0.0},"counts":{"conflict":0,"protests":1,"news":0,"quakes":0},"top_events":[],"rank":108,"trend":{"dod":null,"normal":null,"isNew":true}},{"code":"MO","name_ja":"モロッコ","score":0,"level":1,"lat":33.59,"lon":-7.61,"components":{"conflict":0.0,"protests":1.5,"news":0.0,"quakes":0.0},"counts":{"conflict":0,"protests":1,"news":0,"quakes":0},"top_events":[],"rank":109,"trend":{"dod":null,"normal":null,"isNew":true}},{"code":"CB","name_ja":"カンボジア","score":0,"level":1,"lat":13.0,"lon":105.0,"components":{"conflict":0.0,"protests":0.9,"news":0.0,"quakes":0.0},"counts":{"conflict":0,"protests":1,"news":0,"quakes":0},"top_events":[],"rank":110,"trend":{"dod":null,"normal":{"deltaPct":0,"dir":"flat"},"isNew":false}},{"code":"IC","name_ja":"アイスランド","score":0,"level":1,"lat":65.0,"lon":-18.0,"components":{"conflict":0.0,"protests":0.5,"news":0.0,"quakes":0.0},"counts":{"conflict":0,"protests":1,"news":0,"quakes":0},"top_events":[],"rank":111,"trend":{"dod":null,"normal":{"deltaPct":0,"dir":"flat"},"isNew":false}},{"code":"EZ","name_ja":"チェコ","score":0,"level":1,"lat":50.075,"lon":14.438,"components":{"conflict":0.0,"protests":0.0,"news":0.8,"quakes":0.0},"counts":{"conflict":0,"protests":0,"news":1,"quakes":0},"top_events":[{"title":"ゼレンスキー大統領、剥奪されたポーランド最高勲章を返却","place":"ポーランド（ワルシャワ）","url":"https://www.bbc.com/news/articles/c2lye7xje9yo?at_medium=RSS&at_campaign=rss"}],"rank":112,"trend":{"dod":null,"normal":null,"isNew":true}},{"code":"CI","name_ja":"チリ","score":0,"level":1,"lat":-21.105,"lon":-68.983,"components":{"conflict":0.0,"protests":0.0,"news":0.0,"quakes":1.4},"counts":{"conflict":0,"protests":0,"news":0,"quakes":1},"top_events":[{"title":"M4.7 地震","place":"76 km W of Ollagüe, Chile","url":"https://earthquake.usgs.gov/earthquakes/eventpage/us7000suq2"}],"rank":113,"trend":{"dod":null,"normal":{"deltaPct":-100,"dir":"down"},"isNew":false}}]}