[
  { "id": "aljazeera", "name": "Al Jazeera English", "channel_id": "UCNye-wNBqNL5ZzHSJj3l8Bg", "region": "ドーハ", "lat": 25.28, "lon": 51.53 },
  { "id": "dw", "name": "DW News", "channel_id": "UCknLrEdhRCp1aegoMqRaCZg", "region": "ベルリン", "lat": 52.52, "lon": 13.40 },
  { "id": "france24", "name": "France 24 English", "channel_id": "UCQfwfsi5VrQ8yKZ-UWmAEFg", "region": "パリ", "lat": 48.86, "lon": 2.35 },
  { "id": "nhk", "name": "NHK World-Japan", "channel_id": "UCSPEjw8F2nQDtmUKPFNF7_A", "region": "東京", "lat": 35.68, "lon": 139.69 },
  { "id": "euronews", "name": "euronews", "channel_id": "UCSrZ3UV4jOidv8ppoVuvW9Q", "region": "リヨン", "lat": 45.76, "lon": 4.84 }
]
