[{"name":"Dubai","name_ja":"ドバイ","lon":55.286946,"lat":25.214912,"pop":1379000,"qid":"Q612"},{"name":"Sharjah","name_ja":"シャールジャ","lon":55.406478,"lat":25.371383,"pop":1103027,"qid":"Q289693"},{"name":"Abu Dhabi","name_ja":"アブダビ","lon":54.366593,"lat":24.466684,"pop":603492,"qid":"Q1519"},{"name":"Al Ayn","name_ja":"アル・アイン","lon":55.739998,"lat":24.230471,"pop":408733,"qid":"Q234600"},{"name":"Ras al Khaymah","name_ja":"ラアス・アル＝ハイマ市","lon":55.942776,"lat":25.791538,"pop":160849,"qid":"Q2126436"},{"name":"Al Fujayrah","name_ja":"フジャイラ市","lon":56.337481,"lat":25.123439,"pop":94163,"qid":"Q4045"},{"name":"Jabal Ali","name_ja":"ジュベル・アリ","lon":55.01074,"lat":24.976239,"pop":80000,"qid":"Q665502"},{"name":"Umm al Qaywayn","name_ja":"ウンム・アル＝カイワイン市","lon":55.553343,"lat":25.565273,"pop":44411,"qid":"Q2788830"}]