[{"name":"Kabul","name_ja":"カーブル","lon":69.181314,"lat":34.518636,"pop":3277000},{"name":"Kandahar","name_ja":"カンダハール","lon":65.694946,"lat":31.61002,"pop":715542},{"name":"Jalalabad","name_ja":"ジャラーラーバード","lon":70.436104,"lat":34.441527,"pop":597971},{"name":"Herat","name_ja":"ヘラート","lon":62.169993,"lat":34.330009,"pop":481009},{"name":"Mazar-i-Sharif","name_ja":"マザーリシャリーフ","lon":67.100028,"lat":36.699994,"pop":458151},{"name":"Kondoz","name_ja":"クンドゥーズ","lon":68.87253,"lat":36.727951,"pop":259809},{"name":"Baghlan","name_ja":"バグラーン","lon":68.699259,"lat":36.13933,"pop":218748},{"name":"Lashkar Gah","name_ja":"ラシュカルガー","lon":64.36,"lat":31.582998,"pop":201546},{"name":"Meymaneh","name_ja":"マイーマナ","lon":64.770093,"lat":35.930222,"pop":199795},{"name":"Balkh","name_ja":"バルフ","lon":66.89973,"lat":36.75012,"pop":179969},{"name":"Ghazni","name_ja":"ガズニー","lon":68.417829,"lat":33.563312,"pop":141000},{"name":"Gardiz","name_ja":"ガルデーズ","lon":69.214628,"lat":33.600054,"pop":103601},{"name":"Sheberghan","name_ja":"シェベルガーン","lon":65.738302,"lat":36.657981,"pop":93241},{"name":"Farah","name_ja":"フラダ","lon":62.096819,"lat":32.39173,"pop":73647},{"name":"Andkhvoy","name_ja":"アンドフボイ","lon":65.101494,"lat":36.931659,"pop":71730},{"name":"Feyzabad","name_ja":"ファイザーバード","lon":70.579247,"lat":37.129761,"pop":64704},{"name":"Taloqan","name_ja":"タロカン","lon":69.540004,"lat":36.729999,"pop":64256},{"name":"Bamian","name_ja":"バーミヤーン","lon":67.822732,"lat":34.813337,"pop":61863},{"name":"Pol-e Khomri","name_ja":"プレ・フムリー","lon":68.701119,"lat":35.951073,"pop":56369},{"name":"Charikar","name_ja":"チャーリーカール","lon":69.167912,"lat":35.018262,"pop":53676},{"name":"Zaranj","name_ja":"ザランジ","lon":61.886997,"lat":31.112001,"pop":49851},{"name":"Asadabad","name_ja":"アサダーバード","lon":71.150005,"lat":34.866,"pop":48400},{"name":"Mayda Shahr","name_ja":"マイダーンシャー","lon":68.799997,"lat":34.450002,"pop":35008},{"name":"Aybak","name_ja":"サマンガーン","lon":68.040001,"lat":36.261,"pop":24000},{"name":"Baraki Barak","name_ja":"バラキバラク","lon":68.966703,"lat":33.966702,"pop":22305},{"name":"Karokh","name_ja":"カロク","lon":62.591776,"lat":34.48677,"pop":17484},{"name":"Mehtar Lam","name_ja":"メフタルラーム","lon":70.166701,"lat":34.65,"pop":17345},{"name":"Chaghcharan","name_ja":"チャグチャラーン","lon":65.250001,"lat":34.516701,"pop":15000},{"name":"Zareh Sharan","name_ja":"ザレシャラン","lon":68.416704,"lat":32.85,"pop":13737},{"name":"Qalat","name_ja":"カラート","lon":66.886759,"lat":32.112263,"pop":12191},{"name":"Tarin Kowt","name_ja":"タリーン・コート","lon":65.866699,"lat":32.633298,"pop":10000},{"name":"Mahmud-E Eraqi","name_ja":"マームディラキ","lon":69.333301,"lat":35.016696,"pop":7407},{"name":"Qala i Naw","name_ja":"カラエナウ","lon":63.1333,"lat":34.983,"pop":2997}]