[{"name":"Tirana","name_ja":"ティラナ","lon":19.818883,"lat":41.327541,"pop":895350,"qid":"Q19689"},{"name":"Elbasan","name_ja":"エルバサン","lon":20.083828,"lat":41.121507,"pop":165010,"qid":"Q114257"},{"name":"Shkodër","name_ja":"シュコドラ","lon":19.51885,"lat":42.068452,"pop":155767,"qid":"Q131638"},{"name":"Durrës","name_ja":"ドゥラス","lon":19.448208,"lat":41.3178,"pop":142432,"qid":"Q83285"},{"name":"Vlorë","name_ja":"ヴロラ","lon":19.498231,"lat":40.47736,"pop":89546,"qid":"Q159610"},{"name":"Fier","name_ja":"フィエル","lon":19.573003,"lat":40.730004,"pop":82297,"qid":"Q190897"},{"name":"Korçë","name_ja":"コルチャ","lon":20.766663,"lat":40.616676,"pop":58259,"qid":"Q116341"},{"name":"Berat","name_ja":"ベラト","lon":19.972,"lat":40.709997,"pop":46866,"qid":"Q170244"},{"name":"Lushnjë","name_ja":"ルシュニャ","lon":19.716003,"lat":40.940001,"pop":41469,"qid":"Q212680"},{"name":"Pogradec","name_ja":"ポグラデツ","lon":20.664001,"lat":40.899996,"pop":40000,"qid":"Q73639"},{"name":"Gjirokastër","name_ja":"ジロカストラ","lon":20.149003,"lat":40.078998,"pop":23437,"qid":"Q173690"},{"name":"Krujë","name_ja":"クルヤ","lon":19.797004,"lat":41.518998,"pop":21286,"qid":"Q194164"},{"name":"Lezhë","name_ja":"レジャ","lon":19.654003,"lat":41.787999,"pop":18695,"qid":"Q169160"},{"name":"Kukës","name_ja":"クケス","lon":20.433996,"lat":42.083001,"pop":17832,"qid":"Q210197"},{"name":"Burrel","name_ja":"ブレル","lon":20.016001,"lat":41.625999,"pop":15405,"qid":"Q461313"},{"name":"Sarandë","name_ja":"サランダ","lon":19.999999,"lat":39.877002,"pop":15147,"qid":"Q193226"},{"name":"Peshkopi","name_ja":"ペシュコピ","lon":20.433304,"lat":41.683302,"pop":14848,"qid":"Q223154"},{"name":"Çorovodë","name_ja":"ソロボーデ","lon":20.233297,"lat":40.516704,"pop":14046,"qid":"Q19307"},{"name":"Librazhd","name_ja":"リブラジュド","lon":20.366704,"lat":41.200002,"pop":12691,"qid":"Q18772"},{"name":"Tepelenë","name_ja":"テペレナ","lon":20.033299,"lat":40.283298,"pop":11955,"qid":"Q81631"},{"name":"Gramsh","name_ja":"グラムシ","lon":20.199997,"lat":40.866696,"pop":11556,"qid":"Q18777"},{"name":"Përmet","name_ja":"ペルメット","lon":20.351998,"lat":40.233996,"pop":10686,"qid":"Q642856"},{"name":"Rrëshen","name_ja":"レシェン","lon":19.816705,"lat":41.783301,"pop":10064,"qid":"Q18737"},{"name":"Bajram Curri","name_ja":"バイラム・ツリ","lon":20.083303,"lat":42.3333,"pop":7967,"qid":"Q18705"},{"name":"Ersekë","name_ja":"エルセカ","lon":20.683297,"lat":40.333302,"pop":7890,"qid":"Q18793"},{"name":"Pukë","name_ja":"プカ","lon":19.883305,"lat":42.033303,"pop":6495,"qid":"Q19310"}]