[{"name":"Tirana","name_ja":"ティラナ","lon":19.818883,"lat":41.327541,"pop":895350},{"name":"Elbasan","name_ja":"エルバサン","lon":20.083828,"lat":41.121507,"pop":165010},{"name":"Shkodër","name_ja":"シュコドラ","lon":19.51885,"lat":42.068452,"pop":155767},{"name":"Durrës","name_ja":"ドゥラス","lon":19.448208,"lat":41.3178,"pop":142432},{"name":"Vlorë","name_ja":"ヴロラ","lon":19.498231,"lat":40.47736,"pop":89546},{"name":"Fier","name_ja":"フィエル","lon":19.573003,"lat":40.730004,"pop":82297},{"name":"Korçë","name_ja":"コルチャ","lon":20.766663,"lat":40.616676,"pop":58259},{"name":"Berat","name_ja":"ベラト","lon":19.972,"lat":40.709997,"pop":46866},{"name":"Lushnjë","name_ja":"ルシュニャ","lon":19.716003,"lat":40.940001,"pop":41469},{"name":"Pogradec","name_ja":"ポグラデツ","lon":20.664001,"lat":40.899996,"pop":40000},{"name":"Gjirokastër","name_ja":"ジロカストラ","lon":20.149003,"lat":40.078998,"pop":23437},{"name":"Krujë","name_ja":"クルヤ","lon":19.797004,"lat":41.518998,"pop":21286},{"name":"Lezhë","name_ja":"レジャ","lon":19.654003,"lat":41.787999,"pop":18695},{"name":"Kukës","name_ja":"クケス","lon":20.433996,"lat":42.083001,"pop":17832},{"name":"Burrel","name_ja":"ブレル","lon":20.016001,"lat":41.625999,"pop":15405},{"name":"Sarandë","name_ja":"サランダ","lon":19.999999,"lat":39.877002,"pop":15147},{"name":"Peshkopi","name_ja":"ペシュコピ","lon":20.433304,"lat":41.683302,"pop":14848},{"name":"Çorovodë","name_ja":"ソロボーデ","lon":20.233297,"lat":40.516704,"pop":14046},{"name":"Librazhd","name_ja":"リブラジュド","lon":20.366704,"lat":41.200002,"pop":12691},{"name":"Tepelenë","name_ja":"テペレナ","lon":20.033299,"lat":40.283298,"pop":11955},{"name":"Gramsh","name_ja":"グラムシ","lon":20.199997,"lat":40.866696,"pop":11556},{"name":"Përmet","name_ja":"ペルメット","lon":20.351998,"lat":40.233996,"pop":10686},{"name":"Rrëshen","name_ja":"レシェン","lon":19.816705,"lat":41.783301,"pop":10064},{"name":"Bajram Curri","name_ja":"バイラム・ツリ","lon":20.083303,"lat":42.3333,"pop":7967},{"name":"Ersekë","name_ja":"エルセカ","lon":20.683297,"lat":40.333302,"pop":7890},{"name":"Pukë","name_ja":"プカ","lon":19.883305,"lat":42.033303,"pop":6495}]