[{"name":"Santa Cruz","name_ja":"サンタ・クルス・デ・ラ・シエラ","lon":-63.227942,"lat":-17.751972,"pop":2102998},{"name":"La Paz","name_ja":"ラパス","lon":-68.151931,"lat":-16.496028,"pop":1590000},{"name":"Cochabamba","name_ja":"コチャバンバ","lon":-66.169977,"lat":-17.410011,"pop":1000000},{"name":"Oruro","name_ja":"オルロ","lon":-67.129996,"lat":-17.97995,"pop":246501},{"name":"Santa Ana","name_ja":"サンタ・アナ・デル・ヤクマ","lon":-65.579961,"lat":-13.760001,"pop":234478},{"name":"Quillacollo","name_ja":"キヤコヨ","lon":-66.279996,"lat":-17.399986,"pop":227052},{"name":"Sucre","name_ja":"スクレ","lon":-65.259516,"lat":-19.040971,"pop":224838},{"name":"Potosí","name_ja":"ポトシ","lon":-65.750028,"lat":-19.569569,"pop":179901},{"name":"Tarija","name_ja":"タリハ","lon":-64.749986,"lat":-21.516685,"pop":159269},{"name":"Montero","name_ja":"モンテロ","lon":-63.260025,"lat":-17.349601,"pop":88616},{"name":"Trinidad","name_ja":"トリニダ","lon":-64.899977,"lat":-14.833372,"pop":84259},{"name":"Riberalta","name_ja":"リベラルタ","lon":-66.100007,"lat":-10.983013,"pop":74014},{"name":"Cobija","name_ja":"コビハ","lon":-68.768827,"lat":-11.02052,"pop":44437},{"name":"Villazón","name_ja":"ビリャソン","lon":-65.599986,"lat":-22.079597,"pop":37215},{"name":"Bermejo","name_ja":"ベルメホ","lon":-64.349985,"lat":-22.729583,"pop":36544},{"name":"Guayaramerín","name_ja":"グアヤラメリン","lon":-65.409997,"lat":-10.829999,"pop":36008},{"name":"Viacha","name_ja":"ビアチャ","lon":-68.29995,"lat":-16.650006,"pop":34776},{"name":"Tupiza","name_ja":"トゥピサ","lon":-65.720004,"lat":-21.439584,"pop":28766},{"name":"Llallagua","name_ja":"リャリャグア","lon":-66.64,"lat":-18.420027,"pop":28069},{"name":"Camiri","name_ja":"カミリ","lon":-63.519984,"lat":-20.050005,"pop":27961},{"name":"Punata","name_ja":"プナタ","lon":-65.839971,"lat":-17.550002,"pop":26323},{"name":"San Ignacio","name_ja":"サン・イグナシオ・デ・ベラスコ","lon":-60.960011,"lat":-16.369609,"pop":25391},{"name":"Puerto Suárez","name_ja":"プエルト・スアーレス","lon":-57.849968,"lat":-18.949555,"pop":22000},{"name":"San Borja","name_ja":"サン・ボルハ","lon":-66.849961,"lat":-14.819626,"pop":19640},{"name":"Villamontes","name_ja":"ビヤモンテス","lon":-63.500011,"lat":-21.24957,"pop":18761},{"name":"Cliza","name_ja":"クリサ","lon":-65.929991,"lat":-17.59,"pop":15816},{"name":"Ascension","name_ja":"アサンシオン","lon":-63.079985,"lat":-15.699573,"pop":14429},{"name":"Uyuni","name_ja":"ウユニ","lon":-66.829988,"lat":-20.460006,"pop":12939},{"name":"Rurrenabaque","name_ja":"ルレナバケ","lon":-67.559995,"lat":-14.46001,"pop":11749},{"name":"Portachuelo","name_ja":"ポルタチュエロ","lon":-63.400017,"lat":-17.36004,"pop":11485},{"name":"Puerto Quijarro","name_ja":"プエルトキハロ","lon":-57.770024,"lat":-17.779601,"pop":10392},{"name":"Roboré","name_ja":"ロボレ","lon":-59.75998,"lat":-18.329541,"pop":10036},{"name":"San Jose","name_ja":"サン・ホセ・デ・チキトス","lon":-60.779996,"lat":-17.850036,"pop":9211},{"name":"Challapata","name_ja":"チャヤパタ","lon":-66.779991,"lat":-18.899584,"pop":9114},{"name":"Achacachi","name_ja":"アチャカチ","lon":-68.666569,"lat":-16.083322,"pop":8447},{"name":"Vallegrande","name_ja":"バージェグランデ","lon":-64.109999,"lat":-18.489583,"pop":8422},{"name":"Aiquile","name_ja":"アイキレ","lon":-65.180011,"lat":-18.18955,"pop":8224},{"name":"Reyes","name_ja":"レイエス","lon":-67.370007,"lat":-14.30958,"pop":7376},{"name":"San Ramón","name_ja":"サン・ラモン","lon":-64.709988,"lat":-13.289591,"pop":6490},{"name":"San Carlos","name_ja":"サンカルロス","lon":-63.729997,"lat":-17.399986,"pop":6353},{"name":"San Matias","name_ja":"サンマティアス","lon":-58.420011,"lat":-16.359997,"pop":6352},{"name":"Betanzos","name_ja":"ベタンソス","lon":-65.450021,"lat":-19.559957,"pop":4847},{"name":"Uncia","name_ja":"ウンシア","lon":-66.57003,"lat":-18.469998,"pop":4723},{"name":"Camargo","name_ja":"カマルゴ","lon":-65.209984,"lat":-20.639581,"pop":4715},{"name":"San Javier","name_ja":"サン・ハビエル","lon":-62.50002,"lat":-16.289614,"pop":4210},{"name":"Apolo","name_ja":"アポロ","lon":-68.419995,"lat":-14.719581,"pop":4189},{"name":"Quime","name_ja":"キメ","lon":-67.220016,"lat":-16.980011,"pop":4045},{"name":"Magdalena","name_ja":"マグダレナ","lon":-64.052768,"lat":-13.260083,"pop":3445},{"name":"Charagua","name_ja":"チャラグア","lon":-63.21995,"lat":-19.799581,"pop":3025},{"name":"San Lorenzo","name_ja":"サンロレンツォ","lon":-64.770011,"lat":-21.479943,"pop":3000},{"name":"Samaipata","name_ja":"サマイパタ","lon":-63.77002,"lat":-18.180042,"pop":2926},{"name":"Padilla","name_ja":"パディヤ","lon":-64.309961,"lat":-19.299611,"pop":2920},{"name":"Entre Ríos","name_ja":"エントレ・リオス","lon":-64.189994,"lat":-21.530018,"pop":2685},{"name":"Tarabuco","name_ja":"タラブコ","lon":-64.91995,"lat":-19.180032,"pop":2428},{"name":"Baures","name_ja":"バウレス","lon":-63.580057,"lat":-13.580012,"pop":2422},{"name":"Coroico","name_ja":"コロイコ","lon":-67.720011,"lat":-16.18962,"pop":2361},{"name":"Sorata","name_ja":"ソラタ","lon":-68.660057,"lat":-15.790007,"pop":2190},{"name":"Coro Coro","name_ja":"コロコロ銅山","lon":-68.449967,"lat":-17.169612,"pop":1884},{"name":"Puerto Villarroel","name_ja":"プエルト・ビリャロエル","lon":-64.78001,"lat":-16.870044,"pop":1778},{"name":"San Rafael","name_ja":"サンラファエル","lon":-60.67995,"lat":-16.779507,"pop":1201},{"name":"Puerto Acosta","name_ja":"プエルトアコスタ","lon":-69.166667,"lat":-15.499585,"pop":1123},{"name":"Sica Sica","name_ja":"シカシカ","lon":-67.729985,"lat":-17.330016,"pop":1006},{"name":"Cuevo","name_ja":"クエボ","lon":-63.529983,"lat":-20.450032,"pop":953},{"name":"Sabaya","name_ja":"サバヤ","lon":-68.383278,"lat":-19.016269,"pop":573},{"name":"Llica","name_ja":"リカ","lon":-68.250031,"lat":-19.849604,"pop":553},{"name":"Charaña","name_ja":"チャラニャ","lon":-69.466597,"lat":-17.599612,"pop":197},{"name":"Piso Firme","name_ja":"ピソファーム","lon":-61.866622,"lat":-13.682952,"pop":72},{"name":"Villa Martin","name_ja":"ビジャマルティン","lon":-67.783341,"lat":-20.76655,"pop":10},{"name":"Puerto Heath","name_ja":"プエルトエアト","lon":-68.666569,"lat":-12.499613,"pop":10}]