[{"name":"Cotonou","name_ja":"コトヌー","lon":2.404355,"lat":6.36298,"pop":762000,"qid":"Q43595"},{"name":"Porto-Novo","name_ja":"ポルトノボ","lon":2.616626,"lat":6.483311,"pop":300000,"qid":"Q3799"},{"name":"Djougou","name_ja":"ジューグー","lon":1.680042,"lat":9.700427,"pop":202810,"qid":"Q868198"},{"name":"Parakou","name_ja":"パラクー","lon":2.620036,"lat":9.34001,"pop":188853,"qid":"Q688324"},{"name":"Kandi","name_ja":"カンディ","lon":2.940017,"lat":11.130366,"pop":109701,"qid":"Q845666"},{"name":"Lokossa","name_ja":"ロコッサ","lon":1.715005,"lat":6.615,"pop":86971,"qid":"Q219058"},{"name":"Ouidah","name_ja":"ウィダー","lon":2.089991,"lat":6.360373,"pop":83503,"qid":"Q850031"},{"name":"Abomey","name_ja":"アボメイ","lon":1.989997,"lat":7.1904,"pop":82154,"qid":"Q189685"},{"name":"Natitingou","name_ja":"ナティティングー","lon":1.389982,"lat":10.320415,"pop":80892,"qid":"Q994125"}]