[{"name":"Minsk","name_ja":"ミンスク","lon":27.564681,"lat":53.901923,"pop":1805000,"qid":"Q2280"},{"name":"Homyel","name_ja":"ホメリ","lon":31.000009,"lat":52.430016,"pop":480951,"qid":"Q2678"},{"name":"Mahilyow","name_ja":"マヒリョウ","lon":30.32465,"lat":53.898505,"pop":369200,"qid":"Q154835"},{"name":"Vitsyebsk","name_ja":"ヴィーツェプスク","lon":30.18533,"lat":55.18871,"pop":342700,"qid":"Q102217"},{"name":"Hrodna","name_ja":"フロドナ","lon":23.83409,"lat":53.677872,"pop":317365,"qid":"Q181376"},{"name":"Brest","name_ja":"ブレスト","lon":23.69999,"lat":52.099984,"pop":300715,"qid":"Q140147"},{"name":"Babruysk","name_ja":"バブルイスク","lon":29.192781,"lat":53.126562,"pop":220517,"qid":"Q207294"},{"name":"Baranavichy","name_ja":"バラーナヴィチ","lon":26.01344,"lat":53.136846,"pop":168772,"qid":"Q237655"},{"name":"Barysaw","name_ja":"ボリソフ","lon":28.492152,"lat":54.226004,"pop":155389,"qid":"Q19313"},{"name":"Orsha","name_ja":"ヴォルシャ","lon":30.421543,"lat":54.515315,"pop":135206,"qid":"Q208609"},{"name":"Pinsk","name_ja":"ピンスク","lon":26.094055,"lat":52.127863,"pop":130777,"qid":"Q204150"},{"name":"Mazyr","name_ja":"マズィル","lon":29.272156,"lat":52.045956,"pop":112137,"qid":"Q386487"},{"name":"Maladzyechna","name_ja":"マラジェチナ","lon":26.865326,"lat":54.318789,"pop":101300,"qid":"Q201203"},{"name":"Lida","name_ja":"リダ","lon":25.284648,"lat":53.888479,"pop":100216,"qid":"Q241475"},{"name":"Polatsk","name_ja":"ポラツク","lon":28.785984,"lat":55.48939,"pop":82258,"qid":"Q200797"}]