[{"name":"Bujumbura","name_ja":"ブジュンブラ","lon":29.360006,"lat":-3.376087,"pop":331700,"qid":"Q3854"},{"name":"Muyinga","name_ja":"ムインガ","lon":30.31726,"lat":-2.852347,"pop":71076,"qid":"Q2006076"},{"name":"Ruyigi","name_ja":"ルイギ","lon":30.243997,"lat":-3.481002,"pop":38458,"qid":"Q1018116"},{"name":"Gitega","name_ja":"ギテガ","lon":29.843594,"lat":-3.426007,"pop":23167,"qid":"Q167551"},{"name":"Ngozi","name_ja":"ンゴジ","lon":29.825002,"lat":-2.912004,"pop":21506,"qid":"Q929689"},{"name":"Rutana","name_ja":"ルタナ","lon":29.993005,"lat":-3.931002,"pop":20893,"qid":"Q246069"},{"name":"Bururi","name_ja":"ブルリ","lon":29.61658,"lat":-3.950729,"pop":20393,"qid":"Q992247"},{"name":"Makamba","name_ja":"マカンバ","lon":29.8,"lat":-4.133304,"pop":19642,"qid":"Q1286083"},{"name":"Kayanza","name_ja":"カヤンザ","lon":29.566702,"lat":-2.899998,"pop":19443,"qid":"Q2305839"},{"name":"Muramvya","name_ja":"ムランヴィヤ","lon":29.611999,"lat":-3.260997,"pop":18041,"qid":"Q557529"},{"name":"Bubanza","name_ja":"ブバンザ","lon":29.366703,"lat":-3.083301,"pop":12728,"qid":"Q2020432"},{"name":"Karusi","name_ja":"カルジ","lon":30.162996,"lat":-3.099996,"pop":10705,"qid":"Q684152"},{"name":"Cankuzo","name_ja":"カンクゾ","lon":30.516697,"lat":-3.166704,"pop":6585,"qid":"Q2669640"},{"name":"Kirundo","name_ja":"キルンド","lon":30.097222,"lat":-2.584722,"pop":6083,"qid":"Q2640808"}]