[{"name":"N'Djamena","name_ja":"ンジャメナ","lon":15.047202,"lat":12.115042,"pop":989000,"qid":"Q3659"},{"name":"Bongor","name_ja":"ボンゴル","lon":15.387164,"lat":10.285947,"pop":193941,"qid":"Q892441"},{"name":"Sarh","name_ja":"サール","lon":18.39003,"lat":9.14997,"pop":169196,"qid":"Q337530"},{"name":"Abéché","name_ja":"アベシェ","lon":20.829984,"lat":13.839994,"pop":158317,"qid":"Q242587"},{"name":"Moundou","name_ja":"ムンドゥ","lon":16.090015,"lat":8.549981,"pop":156705,"qid":"Q333074"},{"name":"Kelo","name_ja":"ケロ","lon":15.800007,"lat":9.317066,"pop":96224,"qid":"Q1011669"},{"name":"Pala","name_ja":"パラ","lon":14.966621,"lat":9.350423,"pop":35466,"qid":"Q1774419"},{"name":"Am Timan","name_ja":"アム・ティマン","lon":20.283299,"lat":11.033292,"pop":30443,"qid":"Q451529"},{"name":"Doba","name_ja":"ドバ","lon":16.85002,"lat":8.65044,"pop":29597,"qid":"Q985618"},{"name":"Mongo","name_ja":"モンゴ","lon":18.699985,"lat":12.183738,"pop":27763,"qid":"Q540895"},{"name":"Ati","name_ja":"アティ","lon":18.333289,"lat":13.21706,"pop":25373,"qid":"Q755791"},{"name":"Laï","name_ja":"ライ","lon":16.305004,"lat":9.395001,"pop":19382,"qid":"Q1856972"},{"name":"Oum Hadjer","name_ja":"ウムハジェル","lon":19.683336,"lat":13.300414,"pop":19271,"qid":"Q2656174"},{"name":"Mao","name_ja":"マオ","lon":15.313318,"lat":14.119434,"pop":18031,"qid":"Q1786045"},{"name":"Faya Largeau","name_ja":"ファヤ・ラルジョー","lon":19.116704,"lat":17.91667,"pop":13400,"qid":"Q516769"},{"name":"Biltine","name_ja":"ビルティーヌ","lon":20.916697,"lat":14.533259,"pop":11000,"qid":"Q1809024"},{"name":"Bol","name_ja":"ボル","lon":14.714698,"lat":13.458958,"pop":3303,"qid":"Q891241"},{"name":"Fada","name_ja":"ファダ","lon":21.590248,"lat":17.184725,"pop":448,"qid":"Q985562"},{"name":"Zouar","name_ja":"ズアル","lon":16.527766,"lat":20.458737,"pop":204,"qid":"Q2586396"}]