[{"name":"Jaffna","name_ja":"ジャフナ","lon":80.005028,"lat":9.675002,"pop":250000},{"name":"Colombo","name_ja":"コロンボ","lon":79.857751,"lat":6.931966,"pop":217000},{"name":"Moratuwa","name_ja":"モラトゥワ","lon":79.880023,"lat":6.780399,"pop":200000},{"name":"Batticaloa","name_ja":"バッティカロア","lon":81.700015,"lat":7.717008,"pop":129222},{"name":"Anuradhapura","name_ja":"アヌラダープラ","lon":80.3833,"lat":8.349993,"pop":118302},{"name":"Sri Jayawardenepura Kotte","name_ja":"スリジャヤワルダナプラコッテ","lon":79.949993,"lat":6.900004,"pop":115826},{"name":"Kandy","name_ja":"キャンディ","lon":80.670001,"lat":7.279981,"pop":111701},{"name":"Trincomalee","name_ja":"トリンコマリー","lon":81.233002,"lat":8.568999,"pop":108420},{"name":"Kilinochchi","name_ja":"キリノッチ","lon":80.39994,"lat":9.40042,"pop":103717},{"name":"Galle","name_ja":"ゴール","lon":80.240001,"lat":6.030005,"pop":99478},{"name":"Matara","name_ja":"マータラ","lon":80.542773,"lat":5.948977,"pop":68244},{"name":"Ratnapura","name_ja":"ラトゥナプラ","lon":80.386003,"lat":6.693003,"pop":47832},{"name":"Badulla","name_ja":"バドゥッラ","lon":81.049926,"lat":6.983694,"pop":47587},{"name":"Puttalan","name_ja":"プッタラム","lon":79.826004,"lat":8.033004,"pop":45661}]