[{"name":"Kinshasa","name_ja":"キンシャサ","lon":15.313026,"lat":-4.327778,"pop":7843000,"qid":"Q3838"},{"name":"Lubumbashi","name_ja":"ルブンバシ","lon":27.478072,"lat":-11.678079,"pop":1352000,"qid":"Q187593"},{"name":"Mbuji-Mayi","name_ja":"ムブジマイ","lon":23.59805,"lat":-6.148081,"pop":1295000,"qid":"Q319660"},{"name":"Kananga","name_ja":"カナンガ","lon":22.398072,"lat":-5.888096,"pop":765000,"qid":"Q205327"},{"name":"Kikwit","name_ja":"キクウィト","lon":18.850002,"lat":-5.030043,"pop":637736,"qid":"Q261887"},{"name":"Kisangani","name_ja":"キサンガニ","lon":25.22,"lat":0.520006,"pop":578470,"qid":"Q146723"},{"name":"Bukavu","name_ja":"ブカヴ","lon":28.840038,"lat":-2.50999,"pop":436779,"qid":"Q222279"},{"name":"Likasi","name_ja":"リカシ","lon":26.780009,"lat":-10.970042,"pop":434408,"qid":"Q18780"},{"name":"Kolwezi","name_ja":"コルヴェジ","lon":25.47244,"lat":-10.716724,"pop":418000,"qid":"Q271404"},{"name":"Beni","name_ja":"ベニ","lon":29.450026,"lat":0.490447,"pop":332903,"qid":"Q817269"},{"name":"Butembo","name_ja":"ビュトンボ","lon":29.280011,"lat":0.130004,"pop":286403,"qid":"Q518785"},{"name":"Mbandaka","name_ja":"ムバンダカ","lon":18.260012,"lat":0.040035,"pop":274996,"qid":"Q211070"},{"name":"Tshikapa","name_ja":"ツィカパ","lon":20.770039,"lat":-6.409959,"pop":267462,"qid":"Q277966"},{"name":"Kindu","name_ja":"キンドゥ","lon":25.909984,"lat":-2.963916,"pop":262914,"qid":"Q270225"},{"name":"Matadi","name_ja":"マタディ","lon":13.450021,"lat":-5.81661,"pop":245862,"qid":"Q211073"},{"name":"Kalemie","name_ja":"カレミ","lon":29.200016,"lat":-5.933295,"pop":206257,"qid":"Q732801"},{"name":"Gemena","name_ja":"ゲメナ","lon":19.769997,"lat":3.260019,"pop":198056,"qid":"Q1006116"},{"name":"Mbanza-Ngungu","name_ja":"ムバンザ・ヌグング","lon":14.860013,"lat":-5.249616,"pop":197545,"qid":"Q857577"},{"name":"Mwene-Ditu","name_ja":"ムワンヌ＝ディトゥ","lon":23.440006,"lat":-7,"pop":189177,"qid":"Q969880"},{"name":"Boma","name_ja":"ボーマ","lon":13.049994,"lat":-5.829994,"pop":178638,"qid":"Q223917"},{"name":"Uvira","name_ja":"ウビラ","lon":29.14002,"lat":-3.369989,"pop":170391,"qid":"Q923687"},{"name":"Bumba","name_ja":"ブンバ","lon":22.459962,"lat":2.189981,"pop":160539,"qid":"Q1004822"},{"name":"Isiro","name_ja":"イシロ","lon":27.620009,"lat":2.759972,"pop":157196,"qid":"Q899873"},{"name":"Gandajika","name_ja":"ガンダジーカ","lon":23.960026,"lat":-6.739603,"pop":154425,"qid":"Q693554"},{"name":"Moanda","name_ja":"ムアンダ","lon":12.354997,"lat":-5.922909,"pop":153915,"qid":"Q1024669"},{"name":"Wamba","name_ja":"ワンバ","lon":27.98996,"lat":2.140424,"pop":146871,"qid":"Q3565982"},{"name":"Goma","name_ja":"ゴマ","lon":29.221787,"lat":-1.678799,"pop":144124,"qid":"Q204381"},{"name":"Kamina","name_ja":"カミナ","lon":25.009987,"lat":-8.730024,"pop":128803,"qid":"Q581179"},{"name":"Bandundu","name_ja":"バンドゥンドゥ","lon":17.379962,"lat":-3.309993,"pop":118211,"qid":"Q736061"},{"name":"Kipushi","name_ja":"キプシ","lon":27.250006,"lat":-11.759607,"pop":113347,"qid":"Q1081284"},{"name":"Ilebo","name_ja":"イレボ","lon":20.609997,"lat":-4.319596,"pop":107093,"qid":"Q848403"},{"name":"Kongolo","name_ja":"コンゴロ","lon":26.979996,"lat":-5.379479,"pop":105202,"qid":"Q3088094"},{"name":"Bunia","name_ja":"ブニア","lon":30.240004,"lat":1.560407,"pop":96764,"qid":"Q648298"},{"name":"Lisala","name_ja":"リサラ","lon":21.509994,"lat":2.14001,"pop":70087,"qid":"Q371532"},{"name":"Lodja","name_ja":"ロジャ","lon":23.591414,"lat":-3.532144,"pop":68244,"qid":"Q1006137"},{"name":"Binga","name_ja":"ビンガ","lon":20.419983,"lat":2.383406,"pop":64639,"qid":"Q4086832"},{"name":"Kasongo","name_ja":"カソンゴ","lon":26.660016,"lat":-4.450027,"pop":63000,"qid":"Q587152"},{"name":"Kabinda","name_ja":"カビンダ","lon":24.479994,"lat":-6.129614,"pop":59004,"qid":"Q3191660"},{"name":"Aketi","name_ja":"アケティ","lon":23.779985,"lat":2.740464,"pop":58601,"qid":"Q417523"},{"name":"Basankusu","name_ja":"バサンクス","lon":19.800021,"lat":1.233709,"pop":52216,"qid":"Q1102117"},{"name":"Mweka","name_ja":"ムヴェッカ","lon":21.569991,"lat":-4.839615,"pop":50675,"qid":"Q2977263"},{"name":"Gbadolite","name_ja":"バドリテ","lon":21.019947,"lat":4.29037,"pop":50493,"qid":"Q833866"},{"name":"Kahemba","name_ja":"カヘンバ","lon":19.000018,"lat":-7.282929,"pop":50000,"qid":""},{"name":"Bulungu","name_ja":"ブルング","lon":18.599991,"lat":-4.549607,"pop":48344,"qid":"Q383736"},{"name":"Manono","name_ja":"マノノ","lon":27.449993,"lat":-7.300034,"pop":46111,"qid":"Q3286489"},{"name":"Buta","name_ja":"ブタ","lon":24.74003,"lat":2.819994,"pop":45677,"qid":"Q736905"},{"name":"Basoko","name_ja":"バソコ","lon":23.590022,"lat":1.240427,"pop":43709,"qid":"Q1101913"},{"name":"Lubao","name_ja":"ルバオ","lon":25.749994,"lat":-5.389556,"pop":43068,"qid":"Q3264616"},{"name":"Lusambo","name_ja":"ルサンボ","lon":23.430032,"lat":-4.969582,"pop":41416,"qid":"Q3267776"},{"name":"Inongo","name_ja":"イノンゴ","lon":18.28001,"lat":-1.939999,"pop":40113,"qid":"Q943652"},{"name":"Tshela","name_ja":"チェラ","lon":12.930001,"lat":-4.969582,"pop":38845,"qid":"Q3090648"},{"name":"Bukama","name_ja":"ブカマ","lon":25.840014,"lat":-9.209581,"pop":38770,"qid":"Q2915071"},{"name":"Mangai","name_ja":"マンガイ","lon":19.530012,"lat":-4.039613,"pop":37188,"qid":"Q6748616"},{"name":"Kampene","name_ja":"カンペネ","lon":26.670041,"lat":-3.599536,"pop":37034,"qid":""},{"name":"Kambove","name_ja":"カンボーヴ","lon":26.600019,"lat":-10.869583,"pop":36702,"qid":"Q674175"},{"name":"Kaniama","name_ja":"カニャマ","lon":24.170039,"lat":-7.56963,"pop":36481,"qid":"Q3192765"},{"name":"Yangambi","name_ja":"ヤンガンビ","lon":24.430023,"lat":0.770378,"pop":35531,"qid":"Q1102132"},{"name":"Luebo","name_ja":"ルエボ","lon":21.41,"lat":-5.349507,"pop":35183,"qid":"Q651248"},{"name":"Businga","name_ja":"ブシンガ","lon":20.869982,"lat":3.340376,"pop":34247,"qid":"Q581003"},{"name":"Mushie","name_ja":"ミュシー","lon":16.920042,"lat":-3.019623,"pop":33062,"qid":"Q1102126"},{"name":"Boende","name_ja":"ボエンデ","lon":20.860008,"lat":-0.219587,"pop":32091,"qid":"Q616131"},{"name":"Kabalo","name_ja":"カバロ","lon":26.910026,"lat":-6.049619,"pop":29833,"qid":"Q2471469"},{"name":"Kasangulu","name_ja":"カザングル","lon":15.179993,"lat":-4.57958,"pop":27961,"qid":"Q3193663"},{"name":"Bolobo","name_ja":"ボロボ","lon":16.23998,"lat":-2.159521,"pop":27862,"qid":"Q2594437"},{"name":"Libenge","name_ja":"リベンゲ","lon":18.61999,"lat":3.660434,"pop":27053,"qid":"Q3237716"},{"name":"Watsa","name_ja":"ワツァ","lon":29.52997,"lat":3.040007,"pop":24516,"qid":"Q3566727"},{"name":"Bondo","name_ja":"ボンドー地方","lon":23.670018,"lat":3.80996,"pop":23517,"qid":"Q2909998"},{"name":"Demba","name_ja":"デンバ","lon":22.259974,"lat":-5.5096,"pop":22263,"qid":"Q3022059"},{"name":"Kasongo-Lunda","name_ja":"カソンゴ・ルンダ","lon":16.82997,"lat":-6.479619,"pop":20060,"qid":"Q3193717"},{"name":"Zongo","name_ja":"ゾンゴ","lon":18.615029,"lat":4.330342,"pop":17667,"qid":"Q219930"},{"name":"Nyunzu","name_ja":"ニュンズ","lon":28.016677,"lat":-5.949573,"pop":15397,"qid":"Q3346723"},{"name":"Bosobolo","name_ja":"ボソボロ","lon":19.880016,"lat":4.190376,"pop":14553,"qid":"Q2911484"},{"name":"Kasaji","name_ja":"カサジ","lon":23.449979,"lat":-10.366203,"pop":11969,"qid":""},{"name":"Kimpese","name_ja":"カンプズ","lon":14.43332,"lat":-5.549598,"pop":10578,"qid":"Q2589060"},{"name":"Moba","name_ja":"モーバ","lon":29.719984,"lat":-7.059583,"pop":10006,"qid":"Q1986207"},{"name":"Dilolo","name_ja":"ディロロ","lon":22.333303,"lat":-10.69962,"pop":7854,"qid":"Q1015069"},{"name":"Bongandanga","name_ja":"ボンガンダンガ","lon":21.050022,"lat":1.510359,"pop":4105,"qid":"Q2910050"},{"name":"Mongbwalu","name_ja":"モンブワル","lon":30.033298,"lat":1.950435,"pop":2819,"qid":"Q6899470"},{"name":"Mwenga","name_ja":"ムウェンガ","lon":28.432517,"lat":-3.038227,"pop":2216,"qid":""},{"name":"Lubutu","name_ja":"ルブトゥ","lon":26.583328,"lat":-0.732889,"pop":1313,"qid":""},{"name":"Buluko","name_ja":"ブルコ","lon":28.528002,"lat":-0.756999,"pop":1192,"qid":""},{"name":"Luanza","name_ja":"ルアンザ","lon":28.699995,"lat":-8.699587,"pop":861,"qid":""},{"name":"Dibaya","name_ja":"ディバヤ","lon":22.870015,"lat":-6.509539,"pop":603,"qid":"Q3026485"},{"name":"Ikela","name_ja":"イケラ","lon":23.266579,"lat":-1.182939,"pop":291,"qid":"Q3086891"},{"name":"Kenge","name_ja":"ケンゲ","lon":16.89994,"lat":-4.82959,"pop":241,"qid":"Q186056"},{"name":"Kalima","name_ja":"カリマ","lon":26.430004,"lat":-2.509577,"pop":194,"qid":"Q1103496"},{"name":"Lusanga","name_ja":"ルサンガ","lon":16.516656,"lat":-5.582929,"pop":177,"qid":"Q6705021"},{"name":"Bafwasende","name_ja":"バフワセンデ","lon":27.266594,"lat":1.083847,"pop":149,"qid":"Q2878913"}]