[{"name":"Kinshasa","name_ja":"キンシャサ","lon":15.313026,"lat":-4.327778,"pop":7843000},{"name":"Lubumbashi","name_ja":"ルブンバシ","lon":27.478072,"lat":-11.678079,"pop":1352000},{"name":"Mbuji-Mayi","name_ja":"ムブジマイ","lon":23.59805,"lat":-6.148081,"pop":1295000},{"name":"Kananga","name_ja":"カナンガ","lon":22.398072,"lat":-5.888096,"pop":765000},{"name":"Kikwit","name_ja":"キクウィト","lon":18.850002,"lat":-5.030043,"pop":637736},{"name":"Kisangani","name_ja":"キサンガニ","lon":25.22,"lat":0.520006,"pop":578470},{"name":"Bukavu","name_ja":"ブカヴ","lon":28.840038,"lat":-2.50999,"pop":436779},{"name":"Likasi","name_ja":"リカシ","lon":26.780009,"lat":-10.970042,"pop":434408},{"name":"Kolwezi","name_ja":"コルヴェジ","lon":25.47244,"lat":-10.716724,"pop":418000},{"name":"Beni","name_ja":"ベニ","lon":29.450026,"lat":0.490447,"pop":332903},{"name":"Butembo","name_ja":"ビュトンボ","lon":29.280011,"lat":0.130004,"pop":286403},{"name":"Mbandaka","name_ja":"ムバンダカ","lon":18.260012,"lat":0.040035,"pop":274996},{"name":"Tshikapa","name_ja":"ツィカパ","lon":20.770039,"lat":-6.409959,"pop":267462},{"name":"Kindu","name_ja":"キンドゥ","lon":25.909984,"lat":-2.963916,"pop":262914},{"name":"Matadi","name_ja":"マタディ","lon":13.450021,"lat":-5.81661,"pop":245862},{"name":"Kalemie","name_ja":"カレミ","lon":29.200016,"lat":-5.933295,"pop":206257},{"name":"Gemena","name_ja":"ゲメナ","lon":19.769997,"lat":3.260019,"pop":198056},{"name":"Mbanza-Ngungu","name_ja":"ムバンザ・ヌグング","lon":14.860013,"lat":-5.249616,"pop":197545},{"name":"Mwene-Ditu","name_ja":"ムワンヌ＝ディトゥ","lon":23.440006,"lat":-7,"pop":189177},{"name":"Boma","name_ja":"ボーマ","lon":13.049994,"lat":-5.829994,"pop":178638},{"name":"Uvira","name_ja":"ウビラ","lon":29.14002,"lat":-3.369989,"pop":170391},{"name":"Bumba","name_ja":"ブンバ","lon":22.459962,"lat":2.189981,"pop":160539},{"name":"Isiro","name_ja":"イシロ","lon":27.620009,"lat":2.759972,"pop":157196},{"name":"Gandajika","name_ja":"ガンダジーカ","lon":23.960026,"lat":-6.739603,"pop":154425},{"name":"Moanda","name_ja":"ムアンダ","lon":12.354997,"lat":-5.922909,"pop":153915},{"name":"Wamba","name_ja":"ワンバ","lon":27.98996,"lat":2.140424,"pop":146871},{"name":"Goma","name_ja":"ゴマ","lon":29.221787,"lat":-1.678799,"pop":144124},{"name":"Kamina","name_ja":"カミナ","lon":25.009987,"lat":-8.730024,"pop":128803},{"name":"Bandundu","name_ja":"バンドゥンドゥ","lon":17.379962,"lat":-3.309993,"pop":118211},{"name":"Kipushi","name_ja":"キプシ","lon":27.250006,"lat":-11.759607,"pop":113347},{"name":"Ilebo","name_ja":"イレボ","lon":20.609997,"lat":-4.319596,"pop":107093},{"name":"Kongolo","name_ja":"コンゴロ","lon":26.979996,"lat":-5.379479,"pop":105202},{"name":"Bunia","name_ja":"ブニア","lon":30.240004,"lat":1.560407,"pop":96764},{"name":"Lisala","name_ja":"リサラ","lon":21.509994,"lat":2.14001,"pop":70087},{"name":"Lodja","name_ja":"ロジャ","lon":23.591414,"lat":-3.532144,"pop":68244},{"name":"Binga","name_ja":"ビンガ","lon":20.419983,"lat":2.383406,"pop":64639},{"name":"Kasongo","name_ja":"カソンゴ","lon":26.660016,"lat":-4.450027,"pop":63000},{"name":"Kabinda","name_ja":"カビンダ","lon":24.479994,"lat":-6.129614,"pop":59004},{"name":"Aketi","name_ja":"アケティ","lon":23.779985,"lat":2.740464,"pop":58601},{"name":"Basankusu","name_ja":"バサンクス","lon":19.800021,"lat":1.233709,"pop":52216},{"name":"Mweka","name_ja":"ムヴェッカ","lon":21.569991,"lat":-4.839615,"pop":50675},{"name":"Gbadolite","name_ja":"バドリテ","lon":21.019947,"lat":4.29037,"pop":50493},{"name":"Kahemba","name_ja":"カヘンバ","lon":19.000018,"lat":-7.282929,"pop":50000},{"name":"Bulungu","name_ja":"ブルング","lon":18.599991,"lat":-4.549607,"pop":48344},{"name":"Manono","name_ja":"マノノ","lon":27.449993,"lat":-7.300034,"pop":46111},{"name":"Buta","name_ja":"ブタ","lon":24.74003,"lat":2.819994,"pop":45677},{"name":"Basoko","name_ja":"バソコ","lon":23.590022,"lat":1.240427,"pop":43709},{"name":"Lubao","name_ja":"ルバオ","lon":25.749994,"lat":-5.389556,"pop":43068},{"name":"Lusambo","name_ja":"ルサンボ","lon":23.430032,"lat":-4.969582,"pop":41416},{"name":"Inongo","name_ja":"イノンゴ","lon":18.28001,"lat":-1.939999,"pop":40113},{"name":"Tshela","name_ja":"チェラ","lon":12.930001,"lat":-4.969582,"pop":38845},{"name":"Bukama","name_ja":"ブカマ","lon":25.840014,"lat":-9.209581,"pop":38770},{"name":"Mangai","name_ja":"マンガイ","lon":19.530012,"lat":-4.039613,"pop":37188},{"name":"Kampene","name_ja":"カンペネ","lon":26.670041,"lat":-3.599536,"pop":37034},{"name":"Kambove","name_ja":"カンボーヴ","lon":26.600019,"lat":-10.869583,"pop":36702},{"name":"Kaniama","name_ja":"カニャマ","lon":24.170039,"lat":-7.56963,"pop":36481},{"name":"Yangambi","name_ja":"ヤンガンビ","lon":24.430023,"lat":0.770378,"pop":35531},{"name":"Luebo","name_ja":"ルエボ","lon":21.41,"lat":-5.349507,"pop":35183},{"name":"Businga","name_ja":"ブシンガ","lon":20.869982,"lat":3.340376,"pop":34247},{"name":"Mushie","name_ja":"ミュシー","lon":16.920042,"lat":-3.019623,"pop":33062},{"name":"Boende","name_ja":"ボエンデ","lon":20.860008,"lat":-0.219587,"pop":32091},{"name":"Kabalo","name_ja":"カバロ","lon":26.910026,"lat":-6.049619,"pop":29833},{"name":"Kasangulu","name_ja":"カザングル","lon":15.179993,"lat":-4.57958,"pop":27961},{"name":"Bolobo","name_ja":"ボロボ","lon":16.23998,"lat":-2.159521,"pop":27862},{"name":"Libenge","name_ja":"リベンゲ","lon":18.61999,"lat":3.660434,"pop":27053},{"name":"Watsa","name_ja":"ワツァ","lon":29.52997,"lat":3.040007,"pop":24516},{"name":"Bondo","name_ja":"ボンドー地方","lon":23.670018,"lat":3.80996,"pop":23517},{"name":"Demba","name_ja":"デンバ","lon":22.259974,"lat":-5.5096,"pop":22263},{"name":"Kasongo-Lunda","name_ja":"カソンゴ・ルンダ","lon":16.82997,"lat":-6.479619,"pop":20060},{"name":"Zongo","name_ja":"ゾンゴ","lon":18.615029,"lat":4.330342,"pop":17667},{"name":"Nyunzu","name_ja":"ニュンズ","lon":28.016677,"lat":-5.949573,"pop":15397},{"name":"Bosobolo","name_ja":"ボソボロ","lon":19.880016,"lat":4.190376,"pop":14553},{"name":"Kasaji","name_ja":"カサジ","lon":23.449979,"lat":-10.366203,"pop":11969},{"name":"Kimpese","name_ja":"カンプズ","lon":14.43332,"lat":-5.549598,"pop":10578},{"name":"Moba","name_ja":"モーバ","lon":29.719984,"lat":-7.059583,"pop":10006},{"name":"Dilolo","name_ja":"ディロロ","lon":22.333303,"lat":-10.69962,"pop":7854},{"name":"Bongandanga","name_ja":"ボンガンダンガ","lon":21.050022,"lat":1.510359,"pop":4105},{"name":"Mongbwalu","name_ja":"モンブワル","lon":30.033298,"lat":1.950435,"pop":2819},{"name":"Mwenga","name_ja":"ムウェンガ","lon":28.432517,"lat":-3.038227,"pop":2216},{"name":"Lubutu","name_ja":"ルブトゥ","lon":26.583328,"lat":-0.732889,"pop":1313},{"name":"Buluko","name_ja":"ブルコ","lon":28.528002,"lat":-0.756999,"pop":1192},{"name":"Luanza","name_ja":"ルアンザ","lon":28.699995,"lat":-8.699587,"pop":861},{"name":"Dibaya","name_ja":"ディバヤ","lon":22.870015,"lat":-6.509539,"pop":603},{"name":"Ikela","name_ja":"イケラ","lon":23.266579,"lat":-1.182939,"pop":291},{"name":"Kenge","name_ja":"ケンゲ","lon":16.89994,"lat":-4.82959,"pop":241},{"name":"Kalima","name_ja":"カリマ","lon":26.430004,"lat":-2.509577,"pop":194},{"name":"Lusanga","name_ja":"ルサンガ","lon":16.516656,"lat":-5.582929,"pop":177},{"name":"Bafwasende","name_ja":"バフワセンデ","lon":27.266594,"lat":1.083847,"pop":149}]