[{"name":"Bangui","name_ja":"バンギ","lon":18.558288,"lat":4.366644,"pop":831925,"qid":"Q3832"},{"name":"Mbaïki","name_ja":"ムバイキ","lon":17.999976,"lat":3.870421,"pop":67132,"qid":"Q593435"},{"name":"Bossangoa","name_ja":"ボサンゴア","lon":17.449984,"lat":6.483724,"pop":63064,"qid":"Q894513"},{"name":"Bambari","name_ja":"バンバリ","lon":20.667203,"lat":5.76196,"pop":62098,"qid":"Q805946"},{"name":"Berbérati","name_ja":"ベルベラティ","lon":15.780008,"lat":4.249959,"pop":61815,"qid":"Q544701"},{"name":"Kaga Bandoro","name_ja":"ガガ＝バンドロ","lon":19.180007,"lat":6.980387,"pop":56520,"qid":"Q1210015"},{"name":"Bozoum","name_ja":"ボズム","lon":16.38333,"lat":6.31699,"pop":40201,"qid":"Q896185"},{"name":"Carnot","name_ja":"カルノ","lon":15.866618,"lat":4.93369,"pop":38071,"qid":"Q521702"},{"name":"Bouar","name_ja":"ブワル","lon":15.599967,"lat":5.95001,"pop":34372,"qid":"Q512111"},{"name":"Sibut","name_ja":"シブート","lon":19.083321,"lat":5.73377,"pop":34267,"qid":"Q1757279"},{"name":"Bangassou","name_ja":"バンガスー","lon":22.816633,"lat":4.733754,"pop":32841,"qid":"Q806478"},{"name":"Bria","name_ja":"ブリア","lon":21.983299,"lat":6.533308,"pop":29027,"qid":"Q598667"},{"name":"Nola","name_ja":"ノラ","lon":16.066606,"lat":3.533698,"pop":26809,"qid":"Q522912"},{"name":"Zemio","name_ja":"ゼミオ","lon":25.133287,"lat":5.033658,"pop":20000,"qid":"Q1771417"},{"name":"Mobaye","name_ja":"モバイエ","lon":21.179997,"lat":4.32,"pop":19431,"qid":"Q1025621"},{"name":"Obo","name_ja":"オボ","lon":26.500026,"lat":5.399992,"pop":12887,"qid":"Q1025617"},{"name":"N'Délé","name_ja":"ンデレ","lon":20.653044,"lat":8.409137,"pop":11764,"qid":"Q612713"},{"name":"Birao","name_ja":"ビラオ","lon":22.783302,"lat":10.283699,"pop":10178,"qid":"Q864999"},{"name":"Bossembélé","name_ja":"ボセンベレ","lon":17.650023,"lat":5.267003,"pop":7287,"qid":"Q1772365"},{"name":"Ouadda","name_ja":"ワッダ","lon":22.400018,"lat":8.06709,"pop":5434,"qid":"Q2428058"},{"name":"Yakossi","name_ja":"ヤコッシ","lon":23.316654,"lat":5.617007,"pop":500,"qid":""}]