[{"name":"Guatemala City","name_ja":"グアテマラシティ","lon":-90.528911,"lat":14.623081,"pop":1024000,"qid":"Q1555"},{"name":"Quetzaltenango","name_ja":"ケツァルテナンゴ","lon":-91.520006,"lat":14.829959,"pop":575263,"qid":"Q334577"},{"name":"El Progreso","name_ja":"エル・プログレソ","lon":-90.016208,"lat":14.922294,"pop":147197,"qid":"Q686756"},{"name":"San Luis","name_ja":"サンルイス","lon":-89.440004,"lat":16.200005,"pop":132470,"qid":"Q1020572"},{"name":"Escuintla","name_ja":"エスクィントラ","lon":-90.779999,"lat":14.300405,"pop":107638,"qid":"Q780771"},{"name":"Huehuetenango","name_ja":"ウェウェテナンゴ","lon":-91.469983,"lat":15.320394,"pop":85992,"qid":"Q984863"},{"name":"Chimaltenango","name_ja":"チマルテナンゴ","lon":-90.819998,"lat":14.661999,"pop":82370,"qid":"Q1002552"},{"name":"Totonicapán","name_ja":"トトニカパン","lon":-91.358001,"lat":14.913999,"pop":69734,"qid":"Q837035"},{"name":"Cobán","name_ja":"コバン","lon":-90.379998,"lat":15.469998,"pop":65194,"qid":"Q867077"},{"name":"Mazatenango","name_ja":"マサテナンゴ","lon":-91.50998,"lat":14.530365,"pop":64652,"qid":"Q1023983"},{"name":"Puerto Barrios","name_ja":"プエルト・バリオス","lon":-88.592652,"lat":15.717495,"pop":56605,"qid":"Q991400"},{"name":"Jutiapa","name_ja":"フティアパ","lon":-89.900001,"lat":14.289992,"pop":50681,"qid":"Q1023364"},{"name":"Jalapa","name_ja":"ハラパ","lon":-89.989002,"lat":14.633001,"pop":45834,"qid":"Q1023359"},{"name":"Sololá","name_ja":"ソロラ","lon":-91.182996,"lat":14.772996,"pop":45373,"qid":"Q602423"},{"name":"Chiquimula","name_ja":"チキムーラ","lon":-89.543997,"lat":14.796999,"pop":41521,"qid":"Q261613"},{"name":"Salamá","name_ja":"サラマ","lon":-90.314001,"lat":15.102999,"pop":40000,"qid":"Q1023655"},{"name":"Antigua Guatemala","name_ja":"アンティグア・グアテマラ","lon":-90.733302,"lat":14.566698,"pop":39368,"qid":"Q212773"},{"name":"Flores","name_ja":"フローレス","lon":-89.883284,"lat":16.933681,"pop":38035,"qid":"Q679383"},{"name":"Retalhuleu","name_ja":"レタルレウ","lon":-91.677014,"lat":14.537097,"pop":36656,"qid":"Q1023393"},{"name":"Zacapa","name_ja":"サカパ","lon":-89.529003,"lat":14.972004,"pop":36088,"qid":"Q139179"},{"name":"San Marcos","name_ja":"サン・マルコス","lon":-91.799999,"lat":14.966001,"pop":25088,"qid":"Q1023981"},{"name":"Santa Cruz Del Quiche","name_ja":"サンタ・クルス・デル・キチェ","lon":-91.133298,"lat":15.033303,"pop":23618,"qid":"Q693140"},{"name":"San Jose","name_ja":"プエルト・サンホセ","lon":-90.820032,"lat":13.93973,"pop":18655,"qid":"Q1266746"},{"name":"Cuilapa","name_ja":"クイラパ","lon":-90.297999,"lat":14.279004,"pop":16484,"qid":"Q1015941"},{"name":"Livingston","name_ja":"リビングストン","lon":-88.756235,"lat":15.830654,"pop":14350,"qid":"Q1192713"},{"name":"La Libertad","name_ja":"ラ・リベルタード","lon":-90.119988,"lat":16.780434,"pop":8646,"qid":"Q164481"}]