[{"name":"Port-au-Prince","name_ja":"ポルトープランス","lon":-72.33798,"lat":18.54297,"pop":1998000,"qid":"Q34261"},{"name":"Cap-Haïtien","name_ja":"カパイシャン","lon":-72.212516,"lat":19.759222,"pop":281487,"qid":"Q216835"},{"name":"Les Cayes","name_ja":"レカイ","lon":-73.749979,"lat":18.200374,"pop":175457,"qid":"Q984786"},{"name":"Gonaïves","name_ja":"ゴナイーヴ","lon":-72.683249,"lat":19.450426,"pop":166678,"qid":"Q852550"},{"name":"Port-De-Paix","name_ja":"ポールドペ","lon":-72.829485,"lat":19.93176,"pop":34657,"qid":"Q951602"},{"name":"Jacmel","name_ja":"ジャクメル","lon":-72.537003,"lat":18.234999,"pop":33563,"qid":"Q923362"},{"name":"Jérémie","name_ja":"ジェレミー","lon":-74.118425,"lat":18.633935,"pop":30917,"qid":"Q986301"},{"name":"Hinche","name_ja":"アンシュ","lon":-72.003996,"lat":19.143,"pop":18590,"qid":"Q993851"},{"name":"Fort-Liberté","name_ja":"フォールリベルテ","lon":-71.84484,"lat":19.665567,"pop":11465,"qid":"Q983788"}]