[{"name":"Zagreb","name_ja":"ザグレブ","lon":15.999995,"lat":45.800007,"pop":722526,"qid":"Q1435"},{"name":"Split","name_ja":"スプリト","lon":16.469992,"lat":43.520404,"pop":214741,"qid":"Q1663"},{"name":"Rijeka","name_ja":"リエカ","lon":14.450012,"lat":45.329984,"pop":170992,"qid":"Q1647"},{"name":"Slavonski Brod","name_ja":"スラヴォンスキ・ブロド","lon":18.015582,"lat":45.160278,"pop":97718,"qid":"Q4686"},{"name":"Osijek","name_ja":"オシエク","lon":18.680038,"lat":45.550384,"pop":95077,"qid":"Q1640"},{"name":"Zadar","name_ja":"ザダル","lon":15.262262,"lat":44.120135,"pop":71258,"qid":"Q3370"},{"name":"Pula","name_ja":"プーラ","lon":13.848085,"lat":44.86872,"pop":61599,"qid":"Q4656"},{"name":"Karlovac","name_ja":"カルロヴァツ","lon":15.547774,"lat":45.487209,"pop":55063,"qid":"Q3617"},{"name":"Šibenik","name_ja":"シベニク","lon":15.905833,"lat":43.727222,"pop":37112,"qid":"Q3549"},{"name":"Dubrovnik","name_ja":"ドゥブロヴニク","lon":18.091392,"lat":42.660948,"pop":36994,"qid":"Q1722"}]