[{"name":"Jakarta","name_ja":"ジャカルタ","lon":106.827492,"lat":-6.172472,"pop":9125000},{"name":"Surabaya","name_ja":"スラバヤ","lon":112.748887,"lat":-7.24729,"pop":2845000},{"name":"Bandung","name_ja":"バンドン","lon":107.568067,"lat":-6.948083,"pop":2394000},{"name":"Bekasi","name_ja":"ブカシ","lon":106.972323,"lat":-6.217257,"pop":2378211},{"name":"Medan","name_ja":"メダン","lon":98.648094,"lat":3.58192,"pop":2115000},{"name":"Palembang","name_ja":"パレンバン","lon":104.748084,"lat":-2.978093,"pop":1749000},{"name":"Semarang","name_ja":"スマラン","lon":110.418074,"lat":-6.964672,"pop":1396000},{"name":"Makassar","name_ja":"マカッサル","lon":119.430082,"lat":-5.138013,"pop":1262000},{"name":"Cilacap","name_ja":"チラチャプ","lon":109.015402,"lat":-7.71882,"pop":1174964},{"name":"Bogor","name_ja":"ボゴール","lon":106.748065,"lat":-6.568055,"pop":918000},{"name":"Bandar Lampung","name_ja":"バンダールランプン","lon":105.300022,"lat":-5.449604,"pop":881801},{"name":"Bandar Lampung","name_ja":"バンダールランプン","lon":105.268052,"lat":-5.428073,"pop":865000},{"name":"Padang","name_ja":"パダン","lon":100.358068,"lat":-0.958061,"pop":855000},{"name":"Malang","name_ja":"マラン","lon":112.608069,"lat":-7.978046,"pop":805000},{"name":"Pekanbaru","name_ja":"プカンバル","lon":101.423067,"lat":0.56691,"pop":799000},{"name":"Denpasar","name_ja":"デンパサール","lon":115.219985,"lat":-8.650029,"pop":732344},{"name":"Yogyakarta","name_ja":"ジョグジャカルタ市","lon":110.375009,"lat":-7.779953,"pop":636660},{"name":"Palu","name_ja":"パル","lon":119.833037,"lat":-0.907039,"pop":612445},{"name":"Pontianak","name_ja":"ポンティアナック","lon":109.319983,"lat":-0.029987,"pop":607311},{"name":"Bandjarmasin","name_ja":"バンジャルマシン","lon":114.580076,"lat":-3.329992,"pop":603576},{"name":"Samarinda","name_ja":"サマリンダ","lon":117.149996,"lat":-0.500035,"pop":592228},{"name":"Binjai","name_ja":"ビンジャイ","lon":98.500075,"lat":3.620359,"pop":564979},{"name":"Surakarta","name_ja":"スラカルタ","lon":110.825008,"lat":-7.564979,"pop":555308},{"name":"Banda Aceh","name_ja":"バンダ・アチェ","lon":95.320011,"lat":5.549983,"pop":513698},{"name":"Bukittinggi","name_ja":"ブキティンギ","lon":100.36146,"lat":-0.303148,"pop":506964},{"name":"Pasuruan","name_ja":"パスルアン","lon":112.900023,"lat":-7.629574,"pop":500000},{"name":"Mataram","name_ja":"マタラム","lon":116.135019,"lat":-8.579542,"pop":499409},{"name":"Jambi","name_ja":"ジャンビ","lon":103.610048,"lat":-1.589995,"pop":457090},{"name":"Manado","name_ja":"マナド","lon":124.849991,"lat":1.480025,"pop":451893},{"name":"Balikpapan","name_ja":"バリクパパン","lon":116.830016,"lat":-1.250015,"pop":445905},{"name":"Bengkulu","name_ja":"ブンクル","lon":102.269974,"lat":-3.800041,"pop":426673},{"name":"Gorontalo","name_ja":"ゴロンタロ","lon":123.070048,"lat":0.549978,"pop":365497},{"name":"Ambon","name_ja":"アンボン","lon":128.200019,"lat":-3.716687,"pop":355596},{"name":"Pematangsiantar","name_ja":"プマタン・シアンタール","lon":99.061488,"lat":2.961433,"pop":341200},{"name":"Jember","name_ja":"ジェンベル","lon":113.687314,"lat":-8.172694,"pop":298585},{"name":"Kupang","name_ja":"クパン","lon":123.582989,"lat":-10.178669,"pop":282396},{"name":"Sukabumi","name_ja":"スカブミ","lon":106.899976,"lat":-6.909618,"pop":276414},{"name":"Majene","name_ja":"マジェネ","lon":118.966009,"lat":-3.533597,"pop":272377},{"name":"Pakalongan","name_ja":"ペカロンガン","lon":109.670039,"lat":-6.879594,"pop":272000},{"name":"Tasikmalaya","name_ja":"タシクマラヤ","lon":108.214676,"lat":-7.325407,"pop":271143},{"name":"Tebingtinggi","name_ja":"トゥビン・ティンギ","lon":99.130011,"lat":3.330377,"pop":268043},{"name":"Padangsidempuan","name_ja":"パダン・シデムプアン","lon":99.273361,"lat":1.388738,"pop":266882},{"name":"Cirebon","name_ja":"チルボン","lon":108.566644,"lat":-6.733298,"pop":254298},{"name":"Singkawang","name_ja":"シンカワン","lon":108.96547,"lat":0.911981,"pop":248012},{"name":"Tegal","name_ja":"テガル","lon":109.119996,"lat":-6.869569,"pop":237084},{"name":"Kediri","name_ja":"クディリ","lon":112.000026,"lat":-7.789616,"pop":235143},{"name":"Singaraja","name_ja":"シガラジャ","lon":115.094398,"lat":-8.115199,"pop":234468},{"name":"Tanjungpinang","name_ja":"タンジュン・ピナン","lon":104.471442,"lat":0.916829,"pop":226666},{"name":"Sibolga","name_ja":"シボルガ","lon":98.800005,"lat":1.749982,"pop":217312},{"name":"Martapura","name_ja":"マルタプラ","lon":114.836494,"lat":-3.413501,"pop":198239},{"name":"Tarakan","name_ja":"タラカン市","lon":117.633016,"lat":3.300017,"pop":193069},{"name":"Ternate","name_ja":"テルナテ","lon":127.363016,"lat":0.792961,"pop":187521},{"name":"Madiun","name_ja":"マディウン","lon":111.514991,"lat":-7.634587,"pop":186099},{"name":"Pinrang","name_ja":"ピンラン","lon":119.652221,"lat":-3.785726,"pop":182731},{"name":"Probolinggo","name_ja":"プロボリンゴ","lon":113.150034,"lat":-7.749619,"pop":181656},{"name":"Salatiga","name_ja":"サラティガ","lon":110.490093,"lat":-7.309542,"pop":176000},{"name":"Banyuwangi","name_ja":"バニュワンギ","lon":114.369597,"lat":-8.195018,"pop":172424},{"name":"Jayapura","name_ja":"ジャヤプラ","lon":140.69998,"lat":-2.532986,"pop":169341},{"name":"Kendari","name_ja":"ケンダリ","lon":122.597312,"lat":-3.955328,"pop":165377},{"name":"Serang","name_ja":"セラン","lon":106.149634,"lat":-6.109977,"pop":164767},{"name":"Palangkaraya","name_ja":"パランカラヤ","lon":113.909987,"lat":-2.209595,"pop":148289},{"name":"Lhokseumawe","name_ja":"ロークスマウェ","lon":97.14145,"lat":5.1914,"pop":140322},{"name":"Blitar","name_ja":"ブリタール","lon":112.149991,"lat":-8.069599,"pop":132416},{"name":"Pangkalpinang","name_ja":"パンカルピナン","lon":106.150048,"lat":-2.080042,"pop":125933},{"name":"Sorong","name_ja":"ソロン","lon":131.284999,"lat":-0.855414,"pop":125535},{"name":"Indramayu","name_ja":"インドラマユ","lon":108.319011,"lat":-6.335648,"pop":123263},{"name":"Pati","name_ja":"パティ","lon":111.034659,"lat":-6.741515,"pop":122785},{"name":"Langsa","name_ja":"ランサ","lon":97.966361,"lat":4.673577,"pop":117256},{"name":"Mojokerto","name_ja":"モジョケルト","lon":112.429974,"lat":-7.469584,"pop":112557},{"name":"Magelang","name_ja":"マゲラン","lon":110.179982,"lat":-7.469584,"pop":111461},{"name":"Raba","name_ja":"ラバ","lon":118.766642,"lat":-8.449989,"pop":106101},{"name":"Maumere","name_ja":"マウメレ","lon":122.212323,"lat":-8.618868,"pop":104285},{"name":"Biak","name_ja":"ビアク島","lon":136.048481,"lat":-1.161494,"pop":103610},{"name":"Perabumulih","name_ja":"プラブムリー","lon":104.231457,"lat":-3.443163,"pop":103470},{"name":"Bontang","name_ja":"ボンタン","lon":117.500001,"lat":0.133259,"pop":101691},{"name":"Sungaipenuh","name_ja":"スンガイペヌ","lon":101.396436,"lat":-2.063144,"pop":95913},{"name":"Sampit","name_ja":"サンピット","lon":112.950046,"lat":-2.532935,"pop":92710},{"name":"Parepare","name_ja":"パレパレ","lon":119.633307,"lat":-4.016668,"pop":87776},{"name":"Sumenep","name_ja":"スメネプ県","lon":113.849629,"lat":-7.00491,"pop":84656},{"name":"Watampone","name_ja":"ワタムポネ","lon":120.333368,"lat":-4.532813,"pop":81629},{"name":"Ende","name_ja":"エンデ","lon":121.648946,"lat":-8.862316,"pop":77205},{"name":"Tuban","name_ja":"トゥバン","lon":112.049998,"lat":-6.899541,"pop":76242},{"name":"Manokwari","name_ja":"マノクワリ","lon":134.069274,"lat":-0.871124,"pop":74504},{"name":"Lahat","name_ja":"ラハット県","lon":103.533308,"lat":-3.800041,"pop":65906},{"name":"Tanjung Pandan","name_ja":"タンジュンパンダン","lon":107.650008,"lat":-2.750027,"pop":62374},{"name":"Tidore","name_ja":"ティドレ島","lon":127.435983,"lat":0.696377,"pop":60611},{"name":"Ruteng","name_ja":"ルトゥン","lon":120.469845,"lat":-8.61184,"pop":53976},{"name":"Sawahlunto","name_ja":"サワルント","lon":100.783347,"lat":-0.666278,"pop":50354},{"name":"Waingapu","name_ja":"ワインガプ","lon":120.253011,"lat":-9.658236,"pop":48828},{"name":"Luwuk","name_ja":"ルウク","lon":122.790014,"lat":-0.939595,"pop":47778},{"name":"Amahai","name_ja":"マソヒ","lon":128.940491,"lat":-3.328132,"pop":47653},{"name":"Poso","name_ja":"ポーソ","lon":120.760008,"lat":-1.389593,"pop":47110},{"name":"Padangpanjang","name_ja":"パダンパンジャン","lon":100.416651,"lat":-0.449599,"pop":44096},{"name":"Nabire","name_ja":"ナビレ","lon":135.513423,"lat":-3.351541,"pop":43898},{"name":"Kotabumi","name_ja":"コタブミ","lon":104.899995,"lat":-4.833311,"pop":42366},{"name":"Kualakapuas","name_ja":"クアラカプアス","lon":114.384476,"lat":-2.983715,"pop":35632},{"name":"Praya","name_ja":"プラヤ","lon":116.292322,"lat":-8.722324,"pop":35183},{"name":"Merauke","name_ja":"ムラウク","lon":140.401807,"lat":-8.493191,"pop":34412},{"name":"Kuta","name_ja":"デンパサール","lon":115.184121,"lat":-8.715113,"pop":30012},{"name":"Timika","name_ja":"ティミカ","lon":136.88998,"lat":-4.549607,"pop":26021},{"name":"Baubau","name_ja":"バウバウ","lon":122.616329,"lat":-5.469861,"pop":24412},{"name":"Makale","name_ja":"マカレ","lon":119.853087,"lat":-3.096828,"pop":9960},{"name":"Palopo","name_ja":"ポロポ","lon":120.236319,"lat":-3.099928,"pop":2444},{"name":"Tarutung","name_ja":"タルトゥン","lon":98.966662,"lat":2.017072,"pop":1305},{"name":"Telukbutun","name_ja":"テルクブトゥン","lon":108.2,"lat":4.216989,"pop":140}]