[{"name":"Tokyo","name_ja":"東京都","lon":139.749462,"lat":35.686963,"pop":35676000,"qid":"Q1490"},{"name":"Ōsaka","name_ja":"大阪市","lon":135.503754,"lat":34.691095,"pop":11294000,"qid":"Q35765"},{"name":"Yokohama","name_ja":"横浜市","lon":139.602021,"lat":35.430656,"pop":3697894,"qid":"Q38283"},{"name":"Nagoya","name_ja":"名古屋市","lon":136.913046,"lat":35.156943,"pop":3230000,"qid":"Q11751"},{"name":"Fukuoka","name_ja":"福岡市","lon":130.408068,"lat":33.596961,"pop":2792000,"qid":"Q26600"},{"name":"Sapporo","name_ja":"札幌市","lon":141.338099,"lat":43.076925,"pop":2544000,"qid":"Q37951"},{"name":"Sendai","name_ja":"仙台市","lon":140.869667,"lat":38.268441,"pop":2250000,"qid":"Q46747"},{"name":"Hiroshima","name_ja":"広島市","lon":132.440967,"lat":34.389781,"pop":2045000,"qid":"Q34664"},{"name":"Kyoto","name_ja":"京都市","lon":135.748052,"lat":35.031938,"pop":1805000,"qid":"Q34600"},{"name":"Kōbe","name_ja":"神戸市","lon":135.169982,"lat":34.679988,"pop":1528478,"qid":"Q48320"},{"name":"Kawasaki","name_ja":"川崎市","lon":139.705002,"lat":35.529988,"pop":1437266,"qid":"Q164234"},{"name":"Kitakyūshū","name_ja":"北九州市","lon":130.820015,"lat":33.870399,"pop":997536,"qid":"Q188806"},{"name":"Hamamatsu","name_ja":"浜松市","lon":137.732719,"lat":34.718073,"pop":977023,"qid":"Q185125"},{"name":"Naha","name_ja":"那覇市","lon":127.672972,"lat":26.207172,"pop":905238,"qid":"Q181966"},{"name":"Okayama","name_ja":"岡山市","lon":133.917087,"lat":34.67203,"pop":866092,"qid":"Q200078"},{"name":"Kumamoto","name_ja":"熊本市","lon":130.700642,"lat":32.800929,"pop":718232,"qid":"Q199889"},{"name":"Shizuoka","name_ja":"静岡市","lon":138.385393,"lat":34.985835,"pop":701561,"qid":"Q174691"},{"name":"Utsunomiya","name_ja":"宇都宮市","lon":139.870005,"lat":36.549977,"pop":667752,"qid":"Q200589"},{"name":"Nagano","name_ja":"長野市","lon":138.170005,"lat":36.649997,"pop":594311,"qid":"Q128849"},{"name":"Hachiōji","name_ja":"八王子市","lon":139.326059,"lat":35.657706,"pop":579399,"qid":"Q208863"},{"name":"Niigata","name_ja":"新潟市","lon":139.04003,"lat":37.919997,"pop":569797,"qid":"Q179691"},{"name":"Kagoshima","name_ja":"鹿児島市","lon":130.561064,"lat":31.585965,"pop":555352,"qid":"Q15674"},{"name":"Kanazawa","name_ja":"金沢市","lon":136.640021,"lat":36.560002,"pop":551249,"qid":"Q191130"},{"name":"Ōtsu","name_ja":"大津市","lon":135.867407,"lat":35.006402,"pop":536976,"qid":"Q202907"},{"name":"Matsuyama","name_ja":"松山市","lon":132.765839,"lat":33.845543,"pop":533541,"qid":"Q200022"},{"name":"Tsu","name_ja":"津市","lon":136.51667,"lat":34.717066,"pop":500000,"qid":"Q203027"},{"name":"Ōita","name_ja":"大分市","lon":131.5979,"lat":33.243228,"pop":448907,"qid":"Q199609"},{"name":"Tokushima","name_ja":"徳島市","lon":134.5525,"lat":34.067389,"pop":443760,"qid":"Q207309"},{"name":"Wakayama","name_ja":"和歌山市","lon":135.167708,"lat":34.223117,"pop":440006,"qid":"Q200747"},{"name":"Nagasaki","name_ja":"長崎市","lon":129.885033,"lat":32.764988,"pop":435455,"qid":"Q38234"},{"name":"Gifu","name_ja":"岐阜市","lon":136.762753,"lat":35.423095,"pop":412895,"qid":"Q45798"},{"name":"Iwaki","name_ja":"いわき市","lon":140.890046,"lat":37.055347,"pop":357309,"qid":"Q274384"},{"name":"Asahikawa","name_ja":"旭川市","lon":142.379981,"lat":43.755015,"pop":356612,"qid":"Q200740"},{"name":"Mito","name_ja":"水戸市","lon":140.480045,"lat":36.370427,"pop":353892,"qid":"Q204249"},{"name":"Maebashi","name_ja":"前橋市","lon":139.072689,"lat":36.3927,"pop":344871,"qid":"Q201613"},{"name":"Kōriyama","name_ja":"郡山市","lon":140.38,"lat":37.409976,"pop":340560,"qid":"Q264206"},{"name":"Kawagoe","name_ja":"川越市","lon":139.491062,"lat":35.91769,"pop":337931,"qid":"Q319740"},{"name":"Kōchi","name_ja":"高知市","lon":133.537523,"lat":33.562433,"pop":335570,"qid":"Q200251"},{"name":"Takamatsu","name_ja":"高松市","lon":134.044779,"lat":34.344737,"pop":334223,"qid":"Q200707"},{"name":"Toyama","name_ja":"富山市","lon":137.230011,"lat":36.699994,"pop":332812,"qid":"Q204266"},{"name":"Miyazaki","name_ja":"宮崎市","lon":131.418376,"lat":31.918244,"pop":324384,"qid":"Q204308"},{"name":"Akita","name_ja":"秋田市","lon":140.089991,"lat":39.709991,"pop":320069,"qid":"Q17139"},{"name":"Hakodate","name_ja":"函館市","lon":140.739978,"lat":41.79498,"pop":302984,"qid":"Q26418"},{"name":"Aomori","name_ja":"青森市","lon":140.710005,"lat":40.825039,"pop":298394,"qid":"Q146790"},{"name":"Morioka","name_ja":"盛岡市","lon":141.130031,"lat":39.720016,"pop":295172,"qid":"Q200077"},{"name":"Fukushima","name_ja":"福島市","lon":140.47002,"lat":37.740008,"pop":294237,"qid":"Q161176"},{"name":"Yamagata","name_ja":"山形市","lon":140.320003,"lat":38.270492,"pop":272209,"qid":"Q205526"},{"name":"Fukui","name_ja":"福井市","lon":136.220047,"lat":36.07042,"pop":248707,"qid":"Q201618"},{"name":"Shimonoseki","name_ja":"下関市","lon":130.945433,"lat":33.965432,"pop":245786,"qid":"Q203308"},{"name":"Hachinohe","name_ja":"八戸市","lon":141.540032,"lat":40.509994,"pop":239046,"qid":"Q191914"},{"name":"Sasebo","name_ja":"佐世保市","lon":129.717705,"lat":33.163129,"pop":237444,"qid":"Q328000"},{"name":"Matsumoto","name_ja":"松本市","lon":137.970018,"lat":36.240435,"pop":224926,"qid":"Q213324"},{"name":"Kushiro","name_ja":"釧路市","lon":144.374691,"lat":42.974959,"pop":198566,"qid":"Q271917"},{"name":"Kōfu","name_ja":"甲府市","lon":138.583313,"lat":35.650394,"pop":197540,"qid":"Q201932"},{"name":"Kure","name_ja":"呉市","lon":132.565593,"lat":34.25097,"pop":196991,"qid":"Q223439"},{"name":"Nagaoka","name_ja":"長岡市","lon":138.860041,"lat":37.450413,"pop":195318,"qid":"Q540312"},{"name":"Hirosaki","name_ja":"弘前市","lon":140.47002,"lat":40.56999,"pop":174972,"qid":"Q194087"},{"name":"Tomakomai","name_ja":"苫小牧市","lon":141.550006,"lat":42.650406,"pop":174806,"qid":"Q390413"},{"name":"Obihiro","name_ja":"帯広市","lon":143.17001,"lat":42.930414,"pop":173890,"qid":"Q177149"},{"name":"Takaoka","name_ja":"高岡市","lon":136.999999,"lat":36.670021,"pop":170077,"qid":"Q502988"},{"name":"Matsue","name_ja":"松江市","lon":133.066647,"lat":35.466994,"pop":156811,"qid":"Q207321"},{"name":"Muroran","name_ja":"室蘭市","lon":140.980015,"lat":42.349959,"pop":155676,"qid":"Q496667"},{"name":"Tottori","name_ja":"鳥取市","lon":134.233295,"lat":35.500377,"pop":154098,"qid":"Q200731"},{"name":"Otaru","name_ja":"小樽市","lon":140.978309,"lat":43.188719,"pop":143792,"qid":"Q242108"},{"name":"Kitami","name_ja":"北見市","lon":143.899991,"lat":43.850358,"pop":113137,"qid":"Q265555"},{"name":"Sakata","name_ja":"酒田市","lon":139.850058,"lat":38.920039,"pop":100446,"qid":"Q504690"},{"name":"Tsuruoka","name_ja":"鶴岡市","lon":139.830214,"lat":38.700414,"pop":99820,"qid":"Q734416"},{"name":"Maizuru","name_ja":"舞鶴市","lon":135.333331,"lat":35.450406,"pop":92465,"qid":"Q750573"},{"name":"Kanoya","name_ja":"鹿屋市","lon":130.850039,"lat":31.383316,"pop":82335,"qid":"Q819578"}]