[{"name":"Pyongyang","name_ja":"平壌","lon":125.752745,"lat":39.021385,"pop":3300000,"qid":"Q18808"},{"name":"Nampo","name_ja":"南浦特別市","lon":125.450488,"lat":38.768867,"pop":1127000,"qid":"Q109386"},{"name":"Hamhung","name_ja":"咸興市","lon":127.543488,"lat":39.912002,"pop":773000,"qid":"Q109356"},{"name":"Chongjin","name_ja":"清津市","lon":129.79,"lat":41.784619,"pop":672614,"qid":"Q109336"},{"name":"Sunchon","name_ja":"順川市","lon":125.938969,"lat":39.4236,"pop":400629,"qid":"Q715946"},{"name":"Kaesong","name_ja":"開城特別市","lon":126.564409,"lat":37.963999,"pop":338155,"qid":"Q109079"},{"name":"Wonsan","name_ja":"元山市","lon":127.430816,"lat":39.160489,"pop":329207,"qid":"Q109374"},{"name":"Kanggye","name_ja":"江界市","lon":126.603218,"lat":40.973221,"pop":299514,"qid":"Q489825"},{"name":"Sinuiju","name_ja":"新義州市","lon":124.421284,"lat":40.085859,"pop":288112,"qid":"Q156243"},{"name":"Hyeson","name_ja":"恵山市","lon":128.192733,"lat":41.39273,"pop":227461,"qid":"Q489829"},{"name":"Haeju","name_ja":"海州市","lon":125.714383,"lat":38.039421,"pop":224231,"qid":"Q714865"},{"name":"Kimchaek","name_ja":"金策市","lon":129.202749,"lat":40.672309,"pop":187270,"qid":"Q714873"},{"name":"Manpo","name_ja":"満浦市","lon":126.295846,"lat":41.145433,"pop":186827,"qid":"Q698064"},{"name":"Sariwon","name_ja":"沙里院市","lon":125.762005,"lat":38.507004,"pop":154942,"qid":"Q505807"},{"name":"Chongju","name_ja":"定州市","lon":125.216326,"lat":39.681285,"pop":141769,"qid":"Q213169"},{"name":"Kilchu","name_ja":"吉州郡","lon":129.320416,"lat":40.960431,"pop":101165,"qid":"Q196062"},{"name":"Musan","name_ja":"茂山","lon":129.230396,"lat":42.230431,"pop":80146,"qid":""},{"name":"Munchon","name_ja":"文川市","lon":127.251705,"lat":39.381303,"pop":73619,"qid":"Q494606"},{"name":"Ongjin","name_ja":"甕津","lon":125.357092,"lat":37.937102,"pop":69195,"qid":""},{"name":"Pyongsan","name_ja":"平壌","lon":126.386642,"lat":38.33669,"pop":66260,"qid":"Q18808"},{"name":"Rason","name_ja":"羅先特別市","lon":130.402727,"lat":42.337686,"pop":60864,"qid":"Q221734"},{"name":"Changyon","name_ja":"長淵","lon":125.102069,"lat":38.251734,"pop":48984,"qid":""},{"name":"Anbyon","name_ja":"安辺","lon":127.518562,"lat":39.028172,"pop":38142,"qid":""},{"name":"Sin-Ni","name_ja":"シンニ","lon":125.463997,"lat":39.488004,"pop":19463,"qid":""},{"name":"Chosan","name_ja":"長山","lon":125.800838,"lat":40.825478,"pop":7786,"qid":""},{"name":"Kimhyonggwon","name_ja":"金亨権","lon":128.155319,"lat":40.81752,"pop":3839,"qid":""},{"name":"Taedong","name_ja":"大同江","lon":125.45011,"lat":40.617093,"pop":1884,"qid":""}]