[{"name":"Vientiane","name_ja":"гѓґг‚Јг‚ЁгѓігѓЃгѓЈгѓі","lon":102.59998,"lat":17.966693,"pop":754000},{"name":"Louangphrabang","name_ja":"гѓ«г‚ўгѓігѓ‘гѓђгѓјгѓійѓЎ","lon":102.14161,"lat":19.884534,"pop":107142},{"name":"Pakxe","name_ja":"гѓ‘гѓјг‚Їг‚»гѓјйѓЎ","lon":105.818337,"lat":15.12206,"pop":102775},{"name":"Savannakhet","name_ja":"г‚«г‚¤г‚Ѕгѓјгѓігѓ»гѓќгѓ г‚¦г‚ЈгѓЏгѓјгѓійѓЎ","lon":104.772974,"lat":16.537581,"pop":84898},{"name":"Thakhek","name_ja":"г‚їгѓјг‚±гѓјг‚ЇйѓЎ","lon":104.836123,"lat":17.411197,"pop":76928},{"name":"Xam Nua","name_ja":"г‚µгѓ гѓЊг‚ў","lon":104.033305,"lat":20.416698,"pop":38992},{"name":"Phonsavan","name_ja":"гѓќгѓјгѓіг‚µгѓЇгѓійѓЎ","lon":103.195997,"lat":19.451896,"pop":37507},{"name":"Xaignabouri","name_ja":"г‚µг‚¤гѓ‹гѓЈгѓ–гѓјгѓЄгѓјйѓЎ","lon":101.750058,"lat":19.250464,"pop":16200},{"name":"Champasak","name_ja":"гѓЃгѓЈгѓігѓ‘гѓјг‚µгѓѓг‚Ї","lon":105.866704,"lat":14.8833,"pop":12994},{"name":"Ban Houayxay","name_ja":"гѓ•г‚ўг‚¤г‚µгѓјг‚¤йѓЎ","lon":100.412778,"lat":20.2775,"pop":6347},{"name":"Phongsali","name_ja":"гѓќгѓіг‚µгѓјгѓЄгѓјйѓЎ","lon":102.099997,"lat":21.683304,"pop":6000},{"name":"Saravan","name_ja":"г‚µгѓјгѓ©гѓЇгѓі","lon":106.426999,"lat":15.715998,"pop":5521},{"name":"Attapu","name_ja":"г‚ўгѓѓг‚їгѓ—гѓј","lon":106.839,"lat":14.807997,"pop":4297},{"name":"Louang Namtha","name_ja":"гѓ«г‚ўгѓігѓЉгѓ г‚їгѓјйѓЎ","lon":101.416699,"lat":20.950002,"pop":3225}]