[{"name":"Beirut","name_ja":"ベイルート","lon":35.507762,"lat":33.873921,"pop":1846000},{"name":"Ṭarābulus","name_ja":"トリポリ","lon":35.831661,"lat":34.438267,"pop":530000},{"name":"Saida","name_ja":"サイダ","lon":35.368787,"lat":33.563028,"pop":173894},{"name":"Nabatiye et Tahta","name_ja":"ナバティーエ","lon":35.450002,"lat":33.383304,"pop":80000},{"name":"Zahlé","name_ja":"ザーレ","lon":35.904154,"lat":33.850116,"pop":78145},{"name":"B'abda","name_ja":"バアブダー","lon":35.533296,"lat":33.833304,"pop":9000}]