[{"name":"Tripoli","name_ja":"トリポリ","lon":13.180012,"lat":32.8925,"pop":2189000,"qid":"Q3579"},{"name":"Banghazi","name_ja":"ベンガジ","lon":20.064777,"lat":32.118679,"pop":1180000,"qid":"Q40816"},{"name":"Misrata","name_ja":"ミスラタ","lon":15.099998,"lat":32.379973,"pop":386120,"qid":"Q131323"},{"name":"Tubruq","name_ja":"トブルク","lon":23.960026,"lat":32.079991,"pop":263527,"qid":"Q182092"},{"name":"Al Khums","name_ja":"フムス","lon":14.259998,"lat":32.660421,"pop":201943,"qid":"Q310381"},{"name":"Az Zawiyah","name_ja":"ザーウィヤ","lon":12.719988,"lat":32.760415,"pop":200000,"qid":"Q221503"},{"name":"Zuwara","name_ja":"ズワーラ","lon":12.079149,"lat":32.93441,"pop":180310,"qid":"Q231167"},{"name":"Al Marj","name_ja":"マルジュ","lon":20.829984,"lat":32.500457,"pop":169540,"qid":"Q427646"},{"name":"Gharyan","name_ja":"ガリヤン","lon":13.01997,"lat":32.170374,"pop":146810,"qid":"Q867102"},{"name":"Ajdabiya","name_ja":"アジュダービヤー","lon":20.219995,"lat":30.769994,"pop":143833,"qid":"Q202991"},{"name":"Surt","name_ja":"スルト","lon":16.590036,"lat":31.209993,"pop":128123,"qid":"Q162413"},{"name":"Darnah","name_ja":"デルナ","lon":22.639139,"lat":32.764811,"pop":127974,"qid":"Q211866"},{"name":"Sabha","name_ja":"セブハ","lon":14.43332,"lat":27.033271,"pop":100249,"qid":"Q208389"},{"name":"Nalut","name_ja":"ナールート","lon":10.970018,"lat":31.880443,"pop":66609,"qid":"Q132409"},{"name":"Bani Walid","name_ja":"バニワリード","lon":13.989988,"lat":31.770398,"pop":65392,"qid":"Q244230"},{"name":"Marzuq","name_ja":"ムルズク","lon":13.897229,"lat":25.904399,"pop":55071,"qid":"Q526822"},{"name":"Birak","name_ja":"ブラーク","lon":14.283355,"lat":27.533318,"pop":45421,"qid":"Q1196877"},{"name":"Shahhat","name_ja":"シャハト","lon":21.862169,"lat":32.828137,"pop":45000,"qid":"Q2217718"},{"name":"Mizdah","name_ja":"ミズダ","lon":12.983331,"lat":31.433726,"pop":26107,"qid":"Q2266662"},{"name":"Ghat","name_ja":"ガート","lon":10.172754,"lat":24.964741,"pop":24347,"qid":"Q209393"},{"name":"Al Jawf","name_ja":"ジャウフ","lon":23.289989,"lat":24.199981,"pop":24132,"qid":"Q134086"},{"name":"Hun","name_ja":"フーン","lon":15.933332,"lat":29.116658,"pop":18878,"qid":"Q1991249"},{"name":"Ghadamis","name_ja":"ガダミス","lon":9.50003,"lat":30.133289,"pop":6623,"qid":"Q192237"},{"name":"Awjilah","name_ja":"アウジラ","lon":21.286907,"lat":29.108028,"pop":6610,"qid":"Q137320"},{"name":"Qaminis","name_ja":"カミニス","lon":20.01546,"lat":31.660637,"pop":5348,"qid":"Q36053"},{"name":"Maradah","name_ja":"マラダ","lon":19.216646,"lat":29.233705,"pop":2500,"qid":"Q3646468"},{"name":"Al Bayda","name_ja":"アルバイダ","lon":21.620013,"lat":32.760415,"pop":1794,"qid":"Q35784"},{"name":"Al Jaghbub","name_ja":"ジャグバーブ","lon":24.516581,"lat":29.750392,"pop":1744,"qid":"Q284251"},{"name":"Tajarhi","name_ja":"タジャリ","lon":14.470837,"lat":24.370359,"pop":1500,"qid":"Q84160"},{"name":"Dirj","name_ja":"ディリ","lon":10.456664,"lat":30.167912,"pop":931,"qid":""},{"name":"Tmassa","name_ja":"トマサ","lon":15.800007,"lat":26.366645,"pop":500,"qid":"Q4117083"},{"name":"Umm al Abid","name_ja":"ウムアルアビッド","lon":15.033335,"lat":27.517014,"pop":300,"qid":"Q18210632"},{"name":"El Agheila","name_ja":"エル・アゲイラ","lon":19.200006,"lat":30.257028,"pop":100,"qid":"Q41339"},{"name":"As Sidr","name_ja":"アル・シドル","lon":18.266626,"lat":30.670413,"pop":50,"qid":"Q291912"},{"name":"Zillah","name_ja":"ジラ","lon":17.583361,"lat":28.550414,"pop":10,"qid":"Q3648087"}]