[{"name":"Chișinău","name_ja":"キシナウ","lon":28.857711,"lat":47.005024,"pop":688134},{"name":"Tiraspol","name_ja":"ティラスポリ","lon":29.639989,"lat":46.853095,"pop":157000},{"name":"Bălți","name_ja":"バルツィ","lon":27.905314,"lat":47.759086,"pop":151355},{"name":"Cahul","name_ja":"カグル","lon":28.194444,"lat":45.907881,"pop":63407},{"name":"Dubăsari","name_ja":"ドゥベサリ","lon":29.160833,"lat":47.263056,"pop":23254}]