[{"name":"Lilongwe","name_ja":"リロングウェ","lon":33.783302,"lat":-13.983295,"pop":646750},{"name":"Blantyre","name_ja":"ブランタイヤ","lon":34.989947,"lat":-15.790007,"pop":584877},{"name":"Mzuzu","name_ja":"ムズズ","lon":34.01998,"lat":-11.459987,"pop":110201},{"name":"Mangochi","name_ja":"マンゴチ","lon":35.269981,"lat":-14.459597,"pop":97711},{"name":"Zomba","name_ja":"ゾンバ","lon":35.310031,"lat":-15.390031,"pop":80932},{"name":"Salima","name_ja":"サリマ","lon":34.433288,"lat":-13.782946,"pop":71181},{"name":"Nkhotakota","name_ja":"コタコタ","lon":34.300015,"lat":-12.91628,"pop":59854},{"name":"Karonga","name_ja":"カロンガ","lon":33.933319,"lat":-9.932896,"pop":34207},{"name":"Chiromo","name_ja":"チロモ","lon":35.133245,"lat":-16.550012,"pop":25235},{"name":"Nkhata Bay","name_ja":"カタベイ","lon":34.300015,"lat":-11.599616,"pop":22108},{"name":"Nsanje","name_ja":"ンサンジェ","lon":35.266667,"lat":-16.916667,"pop":21774},{"name":"Mzimba","name_ja":"ムジンバ","lon":33.6,"lat":-11.9,"pop":19308},{"name":"Mchinji","name_ja":"ムチンジ","lon":32.9,"lat":-13.8,"pop":18305},{"name":"Mulanje","name_ja":"ムランジェ","lon":35.5,"lat":-16.033333,"pop":16483},{"name":"Dedza","name_ja":"デッザ","lon":34.333333,"lat":-14.366667,"pop":15608},{"name":"Chitipa","name_ja":"チティパ","lon":33.266641,"lat":-9.716217,"pop":13412},{"name":"Mwanza","name_ja":"ムワンザ","lon":34.516667,"lat":-15.616667,"pop":11379},{"name":"Ntcheu","name_ja":"ンチェウ","lon":34.633333,"lat":-14.816667,"pop":10445},{"name":"Chiradzulu","name_ja":"チラズル","lon":35.183333,"lat":-15.7,"pop":1580},{"name":"Machinga","name_ja":"マチンガ","lon":35.301665,"lat":-15.176186,"pop":1418}]