[{"name":"Bamako","name_ja":"バマコ","lon":-8.001985,"lat":12.65196,"pop":1494000,"qid":"Q3703"},{"name":"Sikasso","name_ja":"シカソ","lon":-5.68,"lat":11.320406,"pop":225753,"qid":"Q722827"},{"name":"Ségou","name_ja":"セグー","lon":-6.260016,"lat":13.439992,"pop":122952,"qid":"Q333476"},{"name":"Gao","name_ja":"ガオ","lon":-0.050008,"lat":16.26659,"pop":116967,"qid":"Q188904"},{"name":"Mopti","name_ja":"モプティ","lon":-4.18004,"lat":14.48998,"pop":108456,"qid":"Q211227"},{"name":"Koutiala","name_ja":"クティアラ","lon":-5.469987,"lat":12.390418,"pop":104927,"qid":"Q281000"},{"name":"Kayes","name_ja":"カイ","lon":-11.44001,"lat":14.449982,"pop":77207,"qid":"Q325164"},{"name":"Timbuktu","name_ja":"トンブクトゥ","lon":-3.016596,"lat":16.766585,"pop":68872,"qid":"Q9427"},{"name":"Kati","name_ja":"カティ","lon":-8.080008,"lat":12.750422,"pop":66895,"qid":"Q771251"},{"name":"Markala","name_ja":"マルカラ","lon":-6.06995,"lat":13.670366,"pop":53738,"qid":"Q976115"},{"name":"Kita","name_ja":"キタ","lon":-9.483308,"lat":13.050404,"pop":46435,"qid":"Q578014"},{"name":"San","name_ja":"サン","lon":-4.900047,"lat":13.300414,"pop":41386,"qid":"Q950460"},{"name":"Bougouni","name_ja":"ブグニ","lon":-7.489967,"lat":11.420426,"pop":35450,"qid":"Q848574"},{"name":"Djenné","name_ja":"ジェンネ","lon":-4.549991,"lat":13.89999,"pop":32944,"qid":"Q213507"},{"name":"Banamba","name_ja":"バナンバ","lon":-7.449995,"lat":13.550399,"pop":30591,"qid":"Q572737"},{"name":"Bourem","name_ja":"ブーレム","lon":-0.349989,"lat":16.900375,"pop":30000,"qid":"Q2337119"},{"name":"Bafoulabé","name_ja":"バフーラベ","lon":-10.820022,"lat":13.800384,"pop":26823,"qid":"Q799794"},{"name":"Koulikoro","name_ja":"クリコロ","lon":-7.549989,"lat":12.883308,"pop":23919,"qid":"Q740974"},{"name":"Nara","name_ja":"ナラ","lon":-7.27998,"lat":15.180015,"pop":18459,"qid":"Q937352"},{"name":"Kangaba","name_ja":"カンガバ","lon":-8.440012,"lat":11.94042,"pop":17232,"qid":"Q1031919"},{"name":"Nioro du Sahel","name_ja":"ニオロ・デュ・サヘル","lon":-9.589968,"lat":15.230426,"pop":14421,"qid":"Q614243"},{"name":"Ménaka","name_ja":"メナカ","lon":2.399998,"lat":15.916663,"pop":9110,"qid":"Q855986"},{"name":"Aguelhok","name_ja":"アゲル・ホック","lon":0.856371,"lat":19.454871,"pop":9000,"qid":"Q357768"},{"name":"Goundam","name_ja":"グンダム","lon":-3.666583,"lat":16.416994,"pop":8456,"qid":"Q976923"},{"name":"Tessalit","name_ja":"テッサリト","lon":1.088812,"lat":20.201388,"pop":6000,"qid":"Q1025926"},{"name":"Mali","name_ja":"マリ","lon":-12.301001,"lat":12.084003,"pop":5479,"qid":"Q1019078"},{"name":"Sokolo","name_ja":"ソコロ","lon":-6.133305,"lat":14.733738,"pop":4374,"qid":"Q2257485"},{"name":"Araouane","name_ja":"アラワン","lon":-3.52995,"lat":18.900021,"pop":4026,"qid":"Q626121"},{"name":"Taoudenni","name_ja":"タウデニ","lon":-3.983359,"lat":22.666587,"pop":3019,"qid":"Q1888993"},{"name":"Yélimané","name_ja":"イェリマネ","lon":-10.566627,"lat":15.133713,"pop":988,"qid":"Q3574261"},{"name":"Satadougou","name_ja":"サタドゥグ","lon":-11.406601,"lat":12.616993,"pop":706,"qid":""}]