[{"name":"Bamako","name_ja":"バマコ","lon":-8.001985,"lat":12.65196,"pop":1494000},{"name":"Sikasso","name_ja":"シカソ","lon":-5.68,"lat":11.320406,"pop":225753},{"name":"Ségou","name_ja":"セグー","lon":-6.260016,"lat":13.439992,"pop":122952},{"name":"Gao","name_ja":"ガオ","lon":-0.050008,"lat":16.26659,"pop":116967},{"name":"Mopti","name_ja":"モプティ","lon":-4.18004,"lat":14.48998,"pop":108456},{"name":"Koutiala","name_ja":"クティアラ","lon":-5.469987,"lat":12.390418,"pop":104927},{"name":"Kayes","name_ja":"カイ","lon":-11.44001,"lat":14.449982,"pop":77207},{"name":"Timbuktu","name_ja":"トンブクトゥ","lon":-3.016596,"lat":16.766585,"pop":68872},{"name":"Kati","name_ja":"カティ","lon":-8.080008,"lat":12.750422,"pop":66895},{"name":"Markala","name_ja":"マルカラ","lon":-6.06995,"lat":13.670366,"pop":53738},{"name":"Kita","name_ja":"キタ","lon":-9.483308,"lat":13.050404,"pop":46435},{"name":"San","name_ja":"サン","lon":-4.900047,"lat":13.300414,"pop":41386},{"name":"Bougouni","name_ja":"ブグニ","lon":-7.489967,"lat":11.420426,"pop":35450},{"name":"Djenné","name_ja":"ジェンネ","lon":-4.549991,"lat":13.89999,"pop":32944},{"name":"Banamba","name_ja":"バナンバ","lon":-7.449995,"lat":13.550399,"pop":30591},{"name":"Bourem","name_ja":"ブーレム","lon":-0.349989,"lat":16.900375,"pop":30000},{"name":"Bafoulabé","name_ja":"バフーラベ","lon":-10.820022,"lat":13.800384,"pop":26823},{"name":"Koulikoro","name_ja":"クリコロ","lon":-7.549989,"lat":12.883308,"pop":23919},{"name":"Nara","name_ja":"ナラ","lon":-7.27998,"lat":15.180015,"pop":18459},{"name":"Kangaba","name_ja":"カンガバ","lon":-8.440012,"lat":11.94042,"pop":17232},{"name":"Nioro du Sahel","name_ja":"ニオロ・デュ・サヘル","lon":-9.589968,"lat":15.230426,"pop":14421},{"name":"Ménaka","name_ja":"メナカ","lon":2.399998,"lat":15.916663,"pop":9110},{"name":"Aguelhok","name_ja":"アゲル・ホック","lon":0.856371,"lat":19.454871,"pop":9000},{"name":"Goundam","name_ja":"グンダム","lon":-3.666583,"lat":16.416994,"pop":8456},{"name":"Tessalit","name_ja":"テッサリト","lon":1.088812,"lat":20.201388,"pop":6000},{"name":"Mali","name_ja":"マリ","lon":-12.301001,"lat":12.084003,"pop":5479},{"name":"Sokolo","name_ja":"ソコロ","lon":-6.133305,"lat":14.733738,"pop":4374},{"name":"Araouane","name_ja":"アラワン","lon":-3.52995,"lat":18.900021,"pop":4026},{"name":"Taoudenni","name_ja":"タウデニ","lon":-3.983359,"lat":22.666587,"pop":3019},{"name":"Yélimané","name_ja":"イェリマネ","lon":-10.566627,"lat":15.133713,"pop":988},{"name":"Satadougou","name_ja":"サタドゥグ","lon":-11.406601,"lat":12.616993,"pop":706}]