[{"name":"Casablanca","name_ja":"カサブランカ","lon":-7.618313,"lat":33.601922,"pop":3181000,"qid":"Q7903"},{"name":"Rabat","name_ja":"ラバト","lon":-6.836408,"lat":34.025307,"pop":1705000,"qid":"Q3551"},{"name":"Fez","name_ja":"フェズ","lon":-5.002323,"lat":34.056545,"pop":1002000,"qid":"Q80985"},{"name":"Marrakesh","name_ja":"マラケシュ","lon":-8.001933,"lat":31.631939,"pop":872000,"qid":"Q101625"},{"name":"Agadir","name_ja":"アガディール","lon":-9.620044,"lat":30.439988,"pop":825467,"qid":"Q170525"},{"name":"Tangier","name_ja":"タンジェ","lon":-5.806198,"lat":35.775925,"pop":750060,"qid":"Q126148"},{"name":"Meknes","name_ja":"メクネス","lon":-5.559981,"lat":33.900423,"pop":697628,"qid":"Q178663"},{"name":"Kenitra","name_ja":"ケニトラ","lon":-6.579997,"lat":34.2704,"pop":551786,"qid":"Q478207"},{"name":"Oujda","name_ja":"ウジダ","lon":-1.909972,"lat":34.690013,"pop":409391,"qid":"Q193802"},{"name":"Safi","name_ja":"サフィ","lon":-9.239989,"lat":32.319977,"pop":353476,"qid":"Q183405"},{"name":"Ksar El Kebir","name_ja":"クサール・アルケビール","lon":-5.909986,"lat":35.020381,"pop":306600,"qid":"Q52603"},{"name":"Er Rachidia","name_ja":"エルラシディア","lon":-4.449972,"lat":31.940413,"pop":228489,"qid":"Q1980885"},{"name":"Taza","name_ja":"ターザ","lon":-4.019972,"lat":34.220378,"pop":199633,"qid":"Q574469"},{"name":"Laayoune","name_ja":"アイウン","lon":-13.200006,"lat":27.149982,"pop":188084,"qid":"Q47837"},{"name":"El Jadida","name_ja":"アル・ジャディーダ","lon":-8.509982,"lat":33.260359,"pop":180470,"qid":"Q219583"},{"name":"Settat","name_ja":"セタット","lon":-7.620011,"lat":33.010426,"pop":161748,"qid":"Q818019"},{"name":"Larache","name_ja":"アライシュ","lon":-6.160022,"lat":35.200421,"pop":120082,"qid":"Q606775"},{"name":"Goulimine","name_ja":"ゲルミン","lon":-10.070016,"lat":28.979974,"pop":115267,"qid":"Q842806"},{"name":"Ad Dakhla","name_ja":"ダフラ","lon":-15.936811,"lat":23.714056,"pop":89292,"qid":"Q345204"},{"name":"Ouezzane","name_ja":"ウェザーン","lon":-5.570007,"lat":34.810342,"pop":69658,"qid":"Q602426"},{"name":"Tan Tan","name_ja":"タンタン","lon":-11.100031,"lat":28.430395,"pop":64868,"qid":"Q936316"},{"name":"Tiznit","name_ja":"ティーズニート","lon":-9.739985,"lat":29.71042,"pop":57705,"qid":"Q587107"},{"name":"Smara","name_ja":"スマラ","lon":-11.683329,"lat":26.733289,"pop":48149,"qid":"Q842810"},{"name":"Bir Anzarane","name_ja":"ビル・アンザラーン","lon":-14.53331,"lat":23.883748,"pop":6597,"qid":"Q4915523"},{"name":"Lemsid","name_ja":"ラムシッド","lon":-13.848192,"lat":26.548187,"pop":100,"qid":"Q6521520"},{"name":"Dawra","name_ja":"ダウラ","lon":-12.992189,"lat":27.462909,"pop":10,"qid":"Q1165464"}]