[{"name":"Casablanca","name_ja":"カサブランカ","lon":-7.618313,"lat":33.601922,"pop":3181000},{"name":"Rabat","name_ja":"ラバト","lon":-6.836408,"lat":34.025307,"pop":1705000},{"name":"Fez","name_ja":"フェズ","lon":-5.002323,"lat":34.056545,"pop":1002000},{"name":"Marrakesh","name_ja":"マラケシュ","lon":-8.001933,"lat":31.631939,"pop":872000},{"name":"Agadir","name_ja":"アガディール","lon":-9.620044,"lat":30.439988,"pop":825467},{"name":"Tangier","name_ja":"タンジェ","lon":-5.806198,"lat":35.775925,"pop":750060},{"name":"Meknes","name_ja":"メクネス","lon":-5.559981,"lat":33.900423,"pop":697628},{"name":"Kenitra","name_ja":"ケニトラ","lon":-6.579997,"lat":34.2704,"pop":551786},{"name":"Oujda","name_ja":"ウジダ","lon":-1.909972,"lat":34.690013,"pop":409391},{"name":"Safi","name_ja":"サフィ","lon":-9.239989,"lat":32.319977,"pop":353476},{"name":"Ksar El Kebir","name_ja":"クサール・アルケビール","lon":-5.909986,"lat":35.020381,"pop":306600},{"name":"Er Rachidia","name_ja":"エルラシディア","lon":-4.449972,"lat":31.940413,"pop":228489},{"name":"Taza","name_ja":"ターザ","lon":-4.019972,"lat":34.220378,"pop":199633},{"name":"Laayoune","name_ja":"アイウン","lon":-13.200006,"lat":27.149982,"pop":188084},{"name":"El Jadida","name_ja":"アル・ジャディーダ","lon":-8.509982,"lat":33.260359,"pop":180470},{"name":"Settat","name_ja":"セタット","lon":-7.620011,"lat":33.010426,"pop":161748},{"name":"Larache","name_ja":"アライシュ","lon":-6.160022,"lat":35.200421,"pop":120082},{"name":"Goulimine","name_ja":"ゲルミン","lon":-10.070016,"lat":28.979974,"pop":115267},{"name":"Ad Dakhla","name_ja":"ダフラ","lon":-15.936811,"lat":23.714056,"pop":89292},{"name":"Ouezzane","name_ja":"ウェザーン","lon":-5.570007,"lat":34.810342,"pop":69658},{"name":"Tan Tan","name_ja":"タンタン","lon":-11.100031,"lat":28.430395,"pop":64868},{"name":"Tiznit","name_ja":"ティーズニート","lon":-9.739985,"lat":29.71042,"pop":57705},{"name":"Smara","name_ja":"スマラ","lon":-11.683329,"lat":26.733289,"pop":48149},{"name":"Bir Anzarane","name_ja":"ビル・アンザラーン","lon":-14.53331,"lat":23.883748,"pop":6597},{"name":"Lemsid","name_ja":"ラムシッド","lon":-13.848192,"lat":26.548187,"pop":100},{"name":"Dawra","name_ja":"ダウラ","lon":-12.992189,"lat":27.462909,"pop":10}]