[{"name":"Nouakchott","name_ja":"ヌアクショット","lon":-15.97534,"lat":18.086427,"pop":742144,"qid":"Q3688"},{"name":"Saint-Louis","name_ja":"サン＝ルイ","lon":-16.510011,"lat":16.01999,"pop":220792,"qid":"Q273779"},{"name":"Nema","name_ja":"ネマ","lon":-7.250007,"lat":16.617059,"pop":200000,"qid":"Q752257"},{"name":"Nouadhibou","name_ja":"ヌアディブ","lon":-17.056024,"lat":20.900002,"pop":86738,"qid":"Q184184"},{"name":"Kiffa","name_ja":"キファ","lon":-11.399987,"lat":16.619979,"pop":73930,"qid":"Q492778"},{"name":"Zouirat","name_ja":"ズエラット","lon":-12.483306,"lat":22.730381,"pop":56345,"qid":"Q227072"},{"name":"Rosso","name_ja":"ロッソ","lon":-15.812663,"lat":16.524016,"pop":47203,"qid":"Q861580"},{"name":"Atar","name_ja":"アタール","lon":-13.049989,"lat":20.51664,"pop":44265,"qid":"Q735645"},{"name":"Tidjikdja","name_ja":"ティジクジャ","lon":-11.416601,"lat":18.550016,"pop":19981,"qid":"Q757041"},{"name":"Boutilimit","name_ja":"ブチリミト","lon":-14.700044,"lat":17.550387,"pop":14142,"qid":"Q895292"},{"name":"Bogue","name_ja":"ボゲ","lon":-14.269967,"lat":16.590394,"pop":10415,"qid":"Q890721"},{"name":"Aleg","name_ja":"アレグ","lon":-13.908996,"lat":17.057997,"pop":8388,"qid":"Q986384"},{"name":"Fderik","name_ja":"フデリック","lon":-12.707,"lat":22.679001,"pop":5760,"qid":"Q113034"},{"name":"Ayoun el Atrous","name_ja":"アヨウン・エル・アトロウス","lon":-9.616659,"lat":16.666591,"pop":1423,"qid":"Q175596"},{"name":"Sélibaby","name_ja":"セリバビ","lon":-12.183324,"lat":15.167019,"pop":460,"qid":"Q1010137"},{"name":"Akjoujt","name_ja":"アクジュジト","lon":-14.390999,"lat":19.746999,"pop":370,"qid":"Q419544"},{"name":"Timbedra","name_ja":"ティンベドラ","lon":-8.166618,"lat":16.250415,"pop":245,"qid":"Q986057"},{"name":"Chegga","name_ja":"シェッガ","lon":-5.779968,"lat":25.3804,"pop":10,"qid":"Q3498088"},{"name":"Magta Lajar","name_ja":"マグタラジャー","lon":-13.499988,"lat":17.000395,"pop":10,"qid":"Q2579658"},{"name":"Bir Mogrein","name_ja":"ビル・モグレイン","lon":-11.583309,"lat":25.233303,"pop":10,"qid":"Q94910"}]