[{"name":"Bissau","name_ja":"ビサウ","lon":-15.598361,"lat":11.865024,"pop":403339},{"name":"Bafatá","name_ja":"バファタ","lon":-14.666015,"lat":12.166995,"pop":29704},{"name":"Gabú","name_ja":"ガブ","lon":-14.234004,"lat":12.279996,"pop":14430},{"name":"Bolama","name_ja":"ボラマ","lon":-15.482804,"lat":11.582953,"pop":10769},{"name":"Cacheu","name_ja":"カシェウ","lon":-16.164998,"lat":12.268998,"pop":10490},{"name":"Catió","name_ja":"カチオ","lon":-15.254246,"lat":11.273036,"pop":9898},{"name":"Farim","name_ja":"ファリン","lon":-15.227,"lat":12.492999,"pop":6792},{"name":"Fulacunda","name_ja":"フラクンダ","lon":-15.194997,"lat":11.772999,"pop":1311}]