[{"name":"Kigali","name_ja":"キガリ","lon":30.058586,"lat":-1.951644,"pop":860000,"qid":"Q3859"},{"name":"Nyanza","name_ja":"ニャンザ","lon":29.740035,"lat":-2.349587,"pop":225209,"qid":"Q528679"},{"name":"Gitarama","name_ja":"ギタラマ","lon":29.759982,"lat":-2.069604,"pop":87613,"qid":"Q668180"},{"name":"Ruhengeri","name_ja":"ルヘンゲリ","lon":29.630015,"lat":-1.499613,"pop":86685,"qid":"Q246145"},{"name":"Gisenyi","name_ja":"ギセニ","lon":29.262906,"lat":-1.684666,"pop":83623,"qid":"Q830631"},{"name":"Butare","name_ja":"ブタレ","lon":29.730009,"lat":-2.589624,"pop":77000,"qid":"Q509739"},{"name":"Byumba","name_ja":"ビュンバ","lon":30.060015,"lat":-1.579556,"pop":70593,"qid":"Q391747"},{"name":"Kibuye","name_ja":"キブエ","lon":29.35,"lat":-2.050002,"pop":48024,"qid":"Q617032"},{"name":"Kibungo","name_ja":"キブンゴ","lon":30.533302,"lat":-2.166696,"pop":46240,"qid":"Q992776"},{"name":"Cyangugu","name_ja":"チャンググ","lon":28.899983,"lat":-2.479605,"pop":19900,"qid":"Q782857"},{"name":"Gikongoro","name_ja":"ギコンゴロ","lon":29.566702,"lat":-2.483298,"pop":15000,"qid":"Q1377368"}]