[{"name":"Dar es Salaam","name_ja":"ダルエスサラーム","lon":39.266396,"lat":-6.798067,"pop":2930000,"qid":"Q1960"},{"name":"Moshi","name_ja":"モシ","lon":37.339984,"lat":-3.339604,"pop":721018,"qid":"Q271733"},{"name":"Mwanza","name_ja":"ムワンザ","lon":32.930021,"lat":-2.520015,"pop":493944,"qid":"Q110218"},{"name":"Zanzibar","name_ja":"ザンジバルシティ","lon":39.200026,"lat":-6.16,"pop":403658,"qid":"Q2222874"},{"name":"Arusha","name_ja":"アルーシャ","lon":36.669999,"lat":-3.360016,"pop":341136,"qid":"Q4301"},{"name":"Mbeya","name_ja":"ムベヤ","lon":33.430042,"lat":-8.890014,"pop":291649,"qid":"Q335548"},{"name":"Morogoro","name_ja":"モロゴロ","lon":37.660016,"lat":-6.820011,"pop":250902,"qid":"Q243319"},{"name":"Tanga","name_ja":"タンガ","lon":39.090007,"lat":-5.070041,"pop":224876,"qid":"Q152902"},{"name":"Dodoma","name_ja":"ドドマ","lon":35.750004,"lat":-6.183306,"pop":218269,"qid":"Q3866"},{"name":"Kigoma","name_ja":"キゴマ","lon":29.610017,"lat":-4.879613,"pop":164268,"qid":"Q244509"},{"name":"Tabora","name_ja":"タボラ","lon":32.800003,"lat":-5.020018,"pop":146495,"qid":"Q643112"},{"name":"Musoma","name_ja":"ムソマ","lon":33.799993,"lat":-1.489587,"pop":133156,"qid":"Q847315"},{"name":"Tukuyu","name_ja":"トゥクユ","lon":33.640003,"lat":-9.249579,"pop":127570,"qid":"Q995249"},{"name":"Songea","name_ja":"ソンゲア","lon":35.65001,"lat":-10.680034,"pop":126449,"qid":"Q794813"},{"name":"Iringa","name_ja":"イリンガ","lon":35.690007,"lat":-7.769617,"pop":111820,"qid":"Q735609"},{"name":"Shinyanga","name_ja":"シニャンガ","lon":33.420017,"lat":-3.659584,"pop":107362,"qid":"Q818765"},{"name":"Bukoba","name_ja":"ブコバ","lon":31.799961,"lat":-1.319624,"pop":100504,"qid":"Q654259"},{"name":"Mtwara","name_ja":"ムトワラ","lon":40.189991,"lat":-10.26962,"pop":96602,"qid":"Q646684"},{"name":"Kilosa","name_ja":"キロサ","lon":36.990031,"lat":-6.839597,"pop":91889,"qid":"Q6408133"},{"name":"Sumbawanga","name_ja":"スンバワンガ","lon":31.620023,"lat":-7.95958,"pop":89161,"qid":"Q115323"},{"name":"Bagamoyo","name_ja":"バガモヨ","lon":38.890019,"lat":-6.439621,"pop":82426,"qid":"Q799843"},{"name":"Uvinza","name_ja":"ウビンザ","lon":30.390021,"lat":-5.119598,"pop":80350,"qid":"Q133448"},{"name":"Mpanda","name_ja":"ムパンダ","lon":31.050032,"lat":-6.359574,"pop":73338,"qid":"Q391599"},{"name":"Singida","name_ja":"シンギダ","lon":34.740039,"lat":-4.819617,"pop":62432,"qid":"Q153331"},{"name":"Korogwe","name_ja":"コログウェ","lon":38.540014,"lat":-5.089574,"pop":50000,"qid":"Q1027843"},{"name":"Chake Chake","name_ja":"チャケ＝チャケ","lon":39.770017,"lat":-5.239539,"pop":49959,"qid":"Q993159"},{"name":"Ifakara","name_ja":"イファカラ","lon":36.680024,"lat":-8.129596,"pop":49528,"qid":"Q995454"},{"name":"Njombe","name_ja":"ヌジョンベ","lon":34.770012,"lat":-9.329626,"pop":46724,"qid":"Q4623904"},{"name":"Lindi","name_ja":"リンディ","lon":39.699995,"lat":-10.000024,"pop":41912,"qid":"Q829886"},{"name":"Kasulu","name_ja":"カスル","lon":30.100013,"lat":-4.57958,"pop":37349,"qid":"Q15554012"},{"name":"Tunduma","name_ja":"トゥンドゥマ","lon":32.77494,"lat":-9.284615,"pop":36556,"qid":"Q7852915"},{"name":"Masasi","name_ja":"マサシ","lon":38.799947,"lat":-10.729592,"pop":36032,"qid":"Q1003089"},{"name":"Kahama","name_ja":"カハマ","lon":32.580016,"lat":-3.819574,"pop":36014,"qid":"Q6346798"},{"name":"Babati","name_ja":"ババティ","lon":35.750004,"lat":-4.21955,"pop":34291,"qid":"Q276746"},{"name":"Biharamulo","name_ja":"ビハラムロ","lon":31.310016,"lat":-2.629621,"pop":34038,"qid":"Q15941811"},{"name":"Kibiti","name_ja":"キビティ","lon":38.950015,"lat":-7.72962,"pop":30163,"qid":""},{"name":"Sikonge","name_ja":"シコンゲ","lon":32.77003,"lat":-5.629541,"pop":27113,"qid":"Q7513858"},{"name":"Nzega","name_ja":"ヌゼガ","lon":33.180031,"lat":-4.209628,"pop":26584,"qid":""},{"name":"Wete","name_ja":"ウェテ","lon":39.725799,"lat":-5.063464,"pop":26450,"qid":"Q1023718"},{"name":"Kakonko","name_ja":"カコンコ","lon":30.960012,"lat":-3.279607,"pop":24688,"qid":"Q13123200"},{"name":"Kibaha","name_ja":"キバハ","lon":38.916703,"lat":-6.766704,"pop":23651,"qid":"Q195492"},{"name":"Mpwapwa","name_ja":"ムプワプワ","lon":36.479985,"lat":-6.349601,"pop":19806,"qid":"Q3711197"},{"name":"Itigi","name_ja":"イティギ","lon":34.480004,"lat":-5.699615,"pop":19711,"qid":"Q13123112"},{"name":"Same","name_ja":"サメ","lon":37.720013,"lat":-4.069585,"pop":17455,"qid":"Q6120947"},{"name":"Ngara","name_ja":"ンガラ","lon":30.650005,"lat":-2.469528,"pop":16890,"qid":"Q4810507"},{"name":"Mikumi","name_ja":"ミクミ","lon":36.980006,"lat":-7.399614,"pop":16780,"qid":"Q6850269"},{"name":"Karema","name_ja":"カレマ","lon":30.433274,"lat":-6.816187,"pop":16385,"qid":"Q15233670"},{"name":"Nyahanga","name_ja":"ニャハンガ","lon":33.550035,"lat":-2.382918,"pop":16092,"qid":""},{"name":"Mbulu","name_ja":"ムブル","lon":35.530017,"lat":-3.849598,"pop":13430,"qid":"Q1009154"},{"name":"Kilindoni","name_ja":"キリンドニ","lon":39.650024,"lat":-7.916275,"pop":12409,"qid":"Q3366013"},{"name":"Ngorongoro","name_ja":"ンゴロンゴロ","lon":35.519992,"lat":-3.249583,"pop":10836,"qid":"Q7192944"},{"name":"Mbamba Bay","name_ja":"ムバンバベイ","lon":34.766601,"lat":-11.282943,"pop":8997,"qid":"Q637890"},{"name":"Oldeani","name_ja":"オルデアニ山","lon":35.550016,"lat":-3.349629,"pop":8000,"qid":"Q7193632"},{"name":"Mkokotoni","name_ja":"ムココトニ","lon":39.259999,"lat":-5.878998,"pop":2572,"qid":"Q2086390"},{"name":"Geita","name_ja":"ゲイタ","lon":32.166605,"lat":-2.866196,"pop":1536,"qid":"Q4622385"},{"name":"Kipili","name_ja":"キピリ","lon":30.599982,"lat":-7.432894,"pop":1533,"qid":""},{"name":"Tunduru","name_ja":"トゥンドゥル","lon":37.370008,"lat":-11.08957,"pop":600,"qid":"Q1514015"},{"name":"Manyoni","name_ja":"マニョーニ","lon":34.90003,"lat":-5.77961,"pop":310,"qid":"Q11204578"},{"name":"Kanyato","name_ja":"カニャト","lon":30.261398,"lat":-4.456538,"pop":232,"qid":""}]