[{"name":"New York","name_ja":"ニューヨーク","lon":-73.995718,"lat":40.721562,"pop":19040000,"qid":"Q60"},{"name":"Los Angeles","name_ja":"ロサンゼルス","lon":-118.231986,"lat":34.049219,"pop":12500000,"qid":"Q65"},{"name":"Chicago","name_ja":"シカゴ","lon":-87.635237,"lat":41.847961,"pop":8990000,"qid":"Q1297"},{"name":"Miami","name_ja":"マイアミ","lon":-80.226052,"lat":25.789557,"pop":5585000,"qid":"Q8652"},{"name":"Philadelphia","name_ja":"フィラデルフィア","lon":-75.179841,"lat":39.945942,"pop":5492000,"qid":"Q1345"},{"name":"Dallas","name_ja":"ダラス","lon":-96.794687,"lat":32.771958,"pop":4798000,"qid":"Q16557"},{"name":"Atlanta","name_ja":"アトランタ","lon":-84.367642,"lat":33.739457,"pop":4506000,"qid":"Q23556"},{"name":"Boston","name_ja":"ボストン","lon":-71.07196,"lat":42.331906,"pop":4467000,"qid":"Q100"},{"name":"Houston","name_ja":"ヒューストン","lon":-95.348436,"lat":29.741273,"pop":4459000,"qid":"Q16555"},{"name":"Washington,  D.C.","name_ja":"ワシントンD.C.","lon":-77.011364,"lat":38.901495,"pop":4338000,"qid":"Q61"},{"name":"Detroit","name_ja":"デトロイト","lon":-83.051334,"lat":42.333558,"pop":4101000,"qid":"Q12439"},{"name":"Phoenix","name_ja":"フェニックス","lon":-112.067365,"lat":33.448322,"pop":3551000,"qid":"Q16556"},{"name":"San Francisco","name_ja":"サンフランシスコ","lon":-122.3996,"lat":37.784263,"pop":3450000,"qid":"Q62"},{"name":"Seattle","name_ja":"シアトル","lon":-122.315322,"lat":47.600423,"pop":3074000,"qid":"Q5083"},{"name":"Irvine","name_ja":"アーバイン","lon":-117.82995,"lat":33.680411,"pop":3010232,"qid":"Q49219"},{"name":"San Diego","name_ja":"サンディエゴ","lon":-117.150881,"lat":32.718914,"pop":2916000,"qid":"Q16552"},{"name":"Minneapolis","name_ja":"ミネアポリス","lon":-93.253732,"lat":44.981925,"pop":2616000,"qid":"Q36091"},{"name":"Tampa","name_ja":"タンパ","lon":-82.460567,"lat":27.948934,"pop":2314000,"qid":"Q49255"},{"name":"Denver","name_ja":"デンヴァー","lon":-104.985962,"lat":39.741134,"pop":2313000,"qid":"Q16554"},{"name":"Baltimore","name_ja":"ボルチモア","lon":-76.614582,"lat":39.281516,"pop":2255000,"qid":"Q5092"},{"name":"St. Louis","name_ja":"セントルイス","lon":-90.241926,"lat":38.636964,"pop":2199000,"qid":"Q38022"},{"name":"Fort Lauderdale","name_ja":"フォートローダーデール","lon":-80.141785,"lat":26.136065,"pop":2042042,"qid":"Q165972"},{"name":"Long Beach","name_ja":"ロングビーチ","lon":-118.200337,"lat":33.777018,"pop":2036134,"qid":"Q16739"},{"name":"Cleveland","name_ja":"クリーヴランド","lon":-81.696944,"lat":41.471933,"pop":1890000,"qid":"Q37320"},{"name":"Portland","name_ja":"ポートランド","lon":-122.681936,"lat":45.52197,"pop":1875000,"qid":"Q6106"},{"name":"Pittsburgh","name_ja":"ピッツバーグ","lon":-80.001931,"lat":40.431945,"pop":1838000,"qid":"Q1342"},{"name":"Las Vegas","name_ja":"ラスベガス","lon":-115.151362,"lat":36.164763,"pop":1823000,"qid":"Q23768"},{"name":"San Bernardino","name_ja":"サン・バーナーディーノ","lon":-117.30198,"lat":34.12233,"pop":1745000,"qid":"Q486168"},{"name":"San Jose","name_ja":"サンノゼ","lon":-121.888179,"lat":37.330943,"pop":1668000,"qid":"Q16553"},{"name":"Cincinnati","name_ja":"シンシナティ","lon":-84.458868,"lat":39.163831,"pop":1636000,"qid":"Q43196"},{"name":"Sacramento","name_ja":"サクラメント","lon":-121.471984,"lat":38.576967,"pop":1604000,"qid":"Q18013"},{"name":"Oakland","name_ja":"オークランド","lon":-122.278038,"lat":37.804725,"pop":1510271,"qid":"Q17042"},{"name":"Virginia Beach","name_ja":"バージニアビーチ","lon":-75.980265,"lat":36.85516,"pop":1491000,"qid":"Q49259"},{"name":"San Antonio","name_ja":"サン・アントニオ","lon":-98.492693,"lat":29.419848,"pop":1473000,"qid":"Q975"},{"name":"Kansas City","name_ja":"カンザスシティ","lon":-94.60604,"lat":39.109034,"pop":1469000,"qid":"Q41819"},{"name":"Ft.  Worth","name_ja":"フォートワース","lon":-97.340038,"lat":32.739977,"pop":1440454,"qid":"Q16558"},{"name":"Indianapolis","name_ja":"インディアナポリス","lon":-86.171994,"lat":39.751934,"pop":1436000,"qid":"Q6346"},{"name":"Milwaukee","name_ja":"ミルウォーキー","lon":-87.916673,"lat":43.029608,"pop":1388000,"qid":"Q37836"},{"name":"Orlando","name_ja":"オーランド","lon":-81.381976,"lat":28.511923,"pop":1350000,"qid":"Q49233"},{"name":"Providence","name_ja":"プロヴィデンス","lon":-71.416926,"lat":41.823048,"pop":1277000,"qid":"Q18383"},{"name":"Columbus","name_ja":"コロンバス","lon":-82.991956,"lat":39.98192,"pop":1270000,"qid":"Q16567"},{"name":"West Palm Beach","name_ja":"ウェストパームビーチ","lon":-80.123621,"lat":26.74502,"pop":1250000,"qid":"Q163749"},{"name":"Raleigh","name_ja":"ローリー","lon":-78.647035,"lat":35.772696,"pop":1163515,"qid":"Q41087"},{"name":"Austin","name_ja":"オースティン","lon":-97.744724,"lat":30.268895,"pop":1161000,"qid":"Q16559"},{"name":"Birmingham","name_ja":"バーミンガム","lon":-86.824995,"lat":33.530006,"pop":1128047,"qid":"Q79867"},{"name":"Mesa","name_ja":"メサ","lon":-111.820967,"lat":33.414796,"pop":1085394,"qid":"Q49261"},{"name":"Memphis","name_ja":"メンフィス","lon":-90.028777,"lat":35.144701,"pop":1081000,"qid":"Q16563"},{"name":"Norfolk","name_ja":"ノーフォーク","lon":-76.280006,"lat":36.849959,"pop":1047869,"qid":"Q49231"},{"name":"Bridgeport","name_ja":"ブリッジポート","lon":-73.201907,"lat":41.181925,"pop":1018000,"qid":"Q49174"},{"name":"Buffalo","name_ja":"バッファロー","lon":-78.881948,"lat":42.881924,"pop":1016000,"qid":"Q40435"},{"name":"Charlotte","name_ja":"シャーロット","lon":-80.831984,"lat":35.20694,"pop":995000,"qid":"Q16565"},{"name":"Jacksonville","name_ja":"ジャクソンビル","lon":-81.671933,"lat":30.331967,"pop":988000,"qid":"Q16568"},{"name":"Salt Lake City","name_ja":"ソルトレイクシティ","lon":-111.931998,"lat":40.776962,"pop":966000,"qid":"Q23337"},{"name":"Louisville","name_ja":"ルイヴィル","lon":-85.75065,"lat":38.226963,"pop":948000,"qid":"Q43668"},{"name":"Tulsa","name_ja":"タルサ","lon":-95.930021,"lat":36.120003,"pop":946962,"qid":"Q44989"},{"name":"Hartford","name_ja":"ハートフォード","lon":-72.681913,"lat":41.771966,"pop":913000,"qid":"Q33486"},{"name":"Richmond","name_ja":"リッチモンド","lon":-77.451932,"lat":37.551965,"pop":912000,"qid":"Q43421"},{"name":"Albuquerque","name_ja":"アルバカーキ","lon":-106.641331,"lat":35.104975,"pop":898642,"qid":"Q34804"},{"name":"Omaha","name_ja":"オマハ","lon":-96.00999,"lat":41.240001,"pop":877110,"qid":"Q43199"},{"name":"Nashville","name_ja":"ナッシュビル","lon":-86.781931,"lat":36.17192,"pop":877000,"qid":"Q23197"},{"name":"Albany","name_ja":"オールバニ","lon":-73.757553,"lat":42.653744,"pop":870716,"qid":"Q24861"},{"name":"New Haven","name_ja":"ニュー・ヘイヴン","lon":-72.900005,"lat":41.330383,"pop":846766,"qid":"Q49145"},{"name":"Tucson","name_ja":"トゥーソン","lon":-110.891932,"lat":32.206943,"pop":823000,"qid":"Q18575"},{"name":"St. Petersburg","name_ja":"セントピーターズバーグ","lon":-82.679383,"lat":27.770539,"pop":800313,"qid":"Q49236"},{"name":"Oklahoma City","name_ja":"オクラホマシティ","lon":-97.520629,"lat":35.471989,"pop":788000,"qid":"Q34863"},{"name":"Honolulu","name_ja":"ホノルル","lon":-157.858301,"lat":21.303429,"pop":786000,"qid":"Q18094"},{"name":"New Orleans","name_ja":"ニューオーリンズ","lon":-90.088368,"lat":29.968908,"pop":785000,"qid":"Q34404"},{"name":"Dayton","name_ja":"デイトン","lon":-84.201933,"lat":39.752322,"pop":773000,"qid":"Q34739"},{"name":"Rochester","name_ja":"ロチェスター","lon":-77.621896,"lat":43.172371,"pop":755000,"qid":"Q49218"},{"name":"El Paso","name_ja":"エル・パソ","lon":-106.511941,"lat":31.78193,"pop":753000,"qid":"Q16562"},{"name":"Stamford","name_ja":"スタンフォード","lon":-73.539191,"lat":41.053346,"pop":746920,"qid":"Q49169"},{"name":"St.  Paul","name_ja":"セイント・ポール","lon":-93.084975,"lat":44.943987,"pop":734854,"qid":"Q28848"},{"name":"Arlington","name_ja":"アーリントン","lon":-97.020239,"lat":32.684761,"pop":724777,"qid":"Q17943"},{"name":"Lowell","name_ja":"ローウェル","lon":-71.316691,"lat":42.633688,"pop":723629,"qid":"Q49162"},{"name":"Tacoma","name_ja":"タコマ","lon":-122.446824,"lat":47.240568,"pop":719868,"qid":"Q199797"},{"name":"Akron","name_ja":"アクロン","lon":-81.519996,"lat":41.070399,"pop":703200,"qid":"Q163132"},{"name":"Stockton","name_ja":"ストックトン","lon":-121.289739,"lat":37.958134,"pop":685306,"qid":"Q49240"},{"name":"Syracuse","name_ja":"シラキュース","lon":-76.150014,"lat":43.049994,"pop":662577,"qid":"Q128069"},{"name":"Knoxville","name_ja":"ノックスビル","lon":-83.92003,"lat":35.970012,"pop":655400,"qid":"Q185582"},{"name":"Pasadena","name_ja":"パサデナ","lon":-95.147743,"lat":29.660863,"pop":628492,"qid":"Q51695"},{"name":"San Mateo","name_ja":"サンマテオ","lon":-122.303214,"lat":37.540554,"pop":626406,"qid":"Q169943"},{"name":"Fresno","name_ja":"フレズノ","lon":-119.772984,"lat":36.747717,"pop":616353,"qid":"Q43301"},{"name":"Oceanside","name_ja":"オーシャンサイド","lon":-117.345811,"lat":33.191499,"pop":609854,"qid":"Q488924"},{"name":"Gary","name_ja":"ゲーリー","lon":-87.330003,"lat":41.580393,"pop":591180,"qid":"Q184116"},{"name":"Sarasota","name_ja":"サラソータ","lon":-82.530787,"lat":27.336121,"pop":589959,"qid":"Q491540"},{"name":"Aurora","name_ja":"オーロラ","lon":-104.808497,"lat":39.695857,"pop":587540,"qid":"Q49246"},{"name":"Covington","name_ja":"コビントン","lon":-84.508599,"lat":39.084008,"pop":585489,"qid":"Q747599"},{"name":"Joliet","name_ja":"ジョリエット","lon":-88.106674,"lat":41.529983,"pop":578460,"qid":"Q40345"},{"name":"Grand Rapids","name_ja":"グランドラピッズ","lon":-85.669949,"lat":42.96372,"pop":535829,"qid":"Q184587"},{"name":"Harrisburg","name_ja":"ハリスバーグ","lon":-76.884749,"lat":40.2736,"pop":528892,"qid":"Q25280"},{"name":"Vancouver","name_ja":"バンクーバー","lon":-122.639993,"lat":45.630301,"pop":525802,"qid":"Q234053"},{"name":"Kansas City","name_ja":"カンザスシティ","lon":-94.630146,"lat":39.11358,"pop":501577,"qid":"Q486472"},{"name":"Glendale","name_ja":"グレンデール","lon":-112.174495,"lat":33.535431,"pop":500000,"qid":"Q51682"},{"name":"Allentown","name_ja":"アレンタウン","lon":-75.500028,"lat":40.599988,"pop":496442,"qid":"Q142811"},{"name":"Berkeley","name_ja":"バークレー","lon":-122.271152,"lat":37.873901,"pop":496356,"qid":"Q484678"},{"name":"Colorado Springs","name_ja":"コロラドスプリングス","lon":-104.791986,"lat":38.862963,"pop":493654,"qid":"Q49258"},{"name":"Everett","name_ja":"エバレット","lon":-122.199968,"lat":47.960417,"pop":486903,"qid":"Q392599"},{"name":"Toledo","name_ja":"トレド","lon":-83.552976,"lat":41.639788,"pop":469924,"qid":"Q49239"},{"name":"Bakersfield","name_ja":"ベーカーズフィールド","lon":-119.019981,"lat":35.369971,"pop":443129,"qid":"Q49256"},{"name":"Laredo","name_ja":"ラレド","lon":-99.507218,"lat":27.506136,"pop":434768,"qid":"Q16868"},{"name":"Baton Rouge","name_ja":"バトンルージュ","lon":-91.140158,"lat":30.457946,"pop":422072,"qid":"Q28218"},{"name":"Springfield","name_ja":"スプリングフィールド","lon":-72.579999,"lat":42.120025,"pop":421780,"qid":"Q49158"},{"name":"Charleston","name_ja":"チャールストン","lon":-79.992105,"lat":32.792377,"pop":411940,"qid":"Q47716"},{"name":"Miami Beach","name_ja":"マイアミビーチ","lon":-80.131781,"lat":25.809919,"pop":407750,"qid":"Q201516"},{"name":"Wichita","name_ja":"ウィチタ","lon":-97.327657,"lat":37.676338,"pop":401843,"qid":"Q49266"},{"name":"Columbia","name_ja":"コロンビア","lon":-92.33391,"lat":38.952078,"pop":398093,"qid":"Q59670"},{"name":"Columbia","name_ja":"コロンビア","lon":-81.031262,"lat":33.996861,"pop":398093,"qid":"Q38453"},{"name":"Metairie","name_ja":"メテリー","lon":-90.152777,"lat":29.983866,"pop":394206,"qid":"Q126661"},{"name":"Palm Springs","name_ja":"パーム・スプリングズ","lon":-116.533053,"lat":33.777356,"pop":390115,"qid":"Q488004"},{"name":"Elgin","name_ja":"エルジン","lon":-88.289919,"lat":42.039461,"pop":389514,"qid":"Q499887"},{"name":"Greensboro","name_ja":"グリーンズボロ","lon":-79.800023,"lat":36.070006,"pop":388887,"qid":"Q49238"},{"name":"Des Moines","name_ja":"デモイン","lon":-93.619981,"lat":41.57998,"pop":380655,"qid":"Q39709"},{"name":"Ogden","name_ja":"オグデン","lon":-111.968034,"lat":41.232379,"pop":377224,"qid":"Q52471"},{"name":"Hampton","name_ja":"ハンプトン","lon":-76.34995,"lat":37.030025,"pop":366766,"qid":"Q342043"},{"name":"Trenton","name_ja":"トレントン","lon":-74.743355,"lat":40.216963,"pop":366513,"qid":"Q25330"},{"name":"McAllen","name_ja":"マッカレン","lon":-98.229725,"lat":26.203038,"pop":364004,"qid":"Q51698"},{"name":"St. Charles","name_ja":"セイント・チャールズ","lon":-90.506166,"lat":38.784285,"pop":360485,"qid":"Q773432"},{"name":"Provo","name_ja":"プロヴォ","lon":-111.63777,"lat":40.248899,"pop":356712,"qid":"Q23443"},{"name":"Greenville","name_ja":"グリーンヴィル","lon":-82.394154,"lat":34.852923,"pop":350954,"qid":"Q574192"},{"name":"Evanston","name_ja":"エヴァンストン","lon":-87.699955,"lat":42.048349,"pop":350000,"qid":"Q462799"},{"name":"Aurora","name_ja":"オーロラ","lon":-88.299996,"lat":41.765395,"pop":350000,"qid":"Q22595"},{"name":"Spokane","name_ja":"スポケーン","lon":-117.419949,"lat":47.669996,"pop":347705,"qid":"Q187805"},{"name":"Boise","name_ja":"ボイシ","lon":-116.22749,"lat":43.60859,"pop":338071,"qid":"Q35775"},{"name":"Salem","name_ja":"セイラム","lon":-70.883092,"lat":42.522499,"pop":335509,"qid":"Q54140"},{"name":"Sanford","name_ja":"サンフォード","lon":-81.279985,"lat":28.78996,"pop":333460,"qid":"Q786770"},{"name":"Reno","name_ja":"リノ","lon":-119.82001,"lat":39.529976,"pop":328585,"qid":"Q49225"},{"name":"Madison","name_ja":"マディソン","lon":-89.401117,"lat":43.073016,"pop":327447,"qid":"Q43788"},{"name":"Modesto","name_ja":"モデスト","lon":-120.98999,"lat":37.655413,"pop":323386,"qid":"Q204561"},{"name":"Youngstown","name_ja":"ヤングスタウン","lon":-80.649739,"lat":41.099699,"pop":311990,"qid":"Q216820"},{"name":"Durham","name_ja":"ダーラム","lon":-78.92,"lat":35.999959,"pop":309495,"qid":"Q49229"},{"name":"Fort Wayne","name_ja":"フォートウェイン","lon":-85.129982,"lat":41.080398,"pop":299871,"qid":"Q49268"},{"name":"Riverside","name_ja":"リヴァーサイド","lon":-117.398039,"lat":33.941945,"pop":297554,"qid":"Q49243"},{"name":"Flint","name_ja":"フリント","lon":-83.687538,"lat":43.012864,"pop":295212,"qid":"Q490584"},{"name":"Worcester","name_ja":"ウースター","lon":-71.800021,"lat":42.270429,"pop":287365,"qid":"Q49179"},{"name":"Barlett","name_ja":"バートレット","lon":-89.84109,"lat":35.2229,"pop":286423,"qid":"Q809451"},{"name":"Winston-Salem","name_ja":"ウィンストン・セーラム","lon":-80.259995,"lat":36.10543,"pop":281683,"qid":"Q49227"},{"name":"Newark","name_ja":"ニューアーク","lon":-74.170005,"lat":40.700421,"pop":280123,"qid":"Q25395"},{"name":"Lansing","name_ja":"ランシング","lon":-84.546736,"lat":42.733527,"pop":279952,"qid":"Q28237"},{"name":"Corpus Christi","name_ja":"コーパスクリスティ","lon":-97.401895,"lat":27.742814,"pop":277454,"qid":"Q49242"},{"name":"Little Rock","name_ja":"リトル・ロック","lon":-92.331093,"lat":34.736083,"pop":270893,"qid":"Q33405"},{"name":"Ann Arbor","name_ja":"アナーバー","lon":-83.719991,"lat":42.300375,"pop":265976,"qid":"Q485172"},{"name":"Melbourne","name_ja":"メルボルン","lon":-80.60832,"lat":28.08331,"pop":265414,"qid":"Q949779"},{"name":"Lexington","name_ja":"レキシントン","lon":-84.500021,"lat":38.050015,"pop":264578,"qid":"Q49241"},{"name":"Augusta","name_ja":"オーガスタ","lon":-81.984981,"lat":33.460812,"pop":262332,"qid":"Q181962"},{"name":"Naples","name_ja":"ネイプルズ","lon":-81.794992,"lat":26.142059,"pop":262306,"qid":"Q257830"},{"name":"Lakeville","name_ja":"レイクビル","lon":-93.24251,"lat":44.650103,"pop":261308,"qid":"Q983776"},{"name":"Anchorage","name_ja":"アンカレッジ","lon":-149.887446,"lat":61.214004,"pop":260283,"qid":"Q39450"},{"name":"Canton","name_ja":"カントン","lon":-81.378635,"lat":40.798865,"pop":258660,"qid":"Q491239"},{"name":"Chattanooga","name_ja":"チャタヌーガ","lon":-85.250001,"lat":35.06999,"pop":257589,"qid":"Q186702"},{"name":"Rockford","name_ja":"ロックフォード","lon":-89.06969,"lat":42.269705,"pop":255978,"qid":"Q233892"},{"name":"Davenport","name_ja":"ダヴェンポート","lon":-90.58753,"lat":41.553987,"pop":255738,"qid":"Q26887"},{"name":"Mobile","name_ja":"モービル","lon":-88.049985,"lat":30.680025,"pop":253466,"qid":"Q79875"},{"name":"Jackson","name_ja":"ジャクソン","lon":-90.184997,"lat":32.298815,"pop":250902,"qid":"Q28198"},{"name":"Coral Springs","name_ja":"コーラルスプリングス","lon":-80.270822,"lat":26.270837,"pop":250000,"qid":"Q505557"},{"name":"Waukesha","name_ja":"ウォーキショー","lon":-88.231369,"lat":43.01165,"pop":249912,"qid":"Q94919"},{"name":"Shreveport","name_ja":"シュリーブポート","lon":-93.770023,"lat":32.500017,"pop":248053,"qid":"Q80517"},{"name":"Lincoln","name_ja":"リンカーン","lon":-96.680001,"lat":40.819975,"pop":246220,"qid":"Q28260"},{"name":"Eugene","name_ja":"ユージーン","lon":-123.100016,"lat":44.05001,"pop":245158,"qid":"Q171224"},{"name":"Fayetteville","name_ja":"ファイエットヴィル","lon":-78.886999,"lat":35.051111,"pop":243306,"qid":"Q331104"},{"name":"South Bend","name_ja":"サウス・ベンド","lon":-86.250017,"lat":41.683307,"pop":239822,"qid":"Q486877"},{"name":"Pensacola","name_ja":"ペンサコーラ","lon":-87.216935,"lat":30.421126,"pop":234384,"qid":"Q486306"},{"name":"Santa Rosa","name_ja":"サンタローザ","lon":-122.699989,"lat":38.450404,"pop":231792,"qid":"Q212991"},{"name":"Salem","name_ja":"セイラム","lon":-123.023897,"lat":44.92807,"pop":229010,"qid":"Q43919"},{"name":"Fort Collins","name_ja":"フォート・コリンズ","lon":-105.058869,"lat":40.560688,"pop":228385,"qid":"Q490732"},{"name":"Fort Pierce","name_ja":"フォートピアース","lon":-80.325805,"lat":27.446786,"pop":228245,"qid":"Q584340"},{"name":"Lancaster","name_ja":"ランカスター","lon":-118.135823,"lat":34.698049,"pop":225799,"qid":"Q494711"},{"name":"Kissimmee","name_ja":"キシミー","lon":-81.407781,"lat":28.292057,"pop":225494,"qid":"Q583894"},{"name":"Tallahassee","name_ja":"タラハシー","lon":-84.280034,"lat":30.449988,"pop":221222,"qid":"Q37043"},{"name":"York","name_ja":"ヨーク","lon":-76.72804,"lat":39.962921,"pop":218010,"qid":"Q821105"},{"name":"Columbus","name_ja":"コロンバス","lon":-84.980017,"lat":32.470433,"pop":217980,"qid":"Q239870"},{"name":"Daytona Beach","name_ja":"デイトナビーチ","lon":-81.023075,"lat":29.210554,"pop":216890,"qid":"Q490595"},{"name":"Lubbock","name_ja":"ラボック","lon":-101.879968,"lat":33.580003,"pop":213300,"qid":"Q49273"},{"name":"Huntsville","name_ja":"ハンツヴィル","lon":-86.609995,"lat":34.71996,"pop":212733,"qid":"Q79860"},{"name":"Springfield","name_ja":"スプリングフィールド","lon":-93.319999,"lat":37.180016,"pop":210939,"qid":"Q135615"},{"name":"Lancaster","name_ja":"ランカスター","lon":-76.305766,"lat":40.037774,"pop":209489,"qid":"Q320514"},{"name":"Appleton","name_ja":"アップルトン","lon":-88.400506,"lat":44.268679,"pop":203665,"qid":"Q94928"},{"name":"Waukegan","name_ja":"ウォキーガン","lon":-87.844726,"lat":42.364041,"pop":200000,"qid":"Q578289"},{"name":"Green Bay","name_ja":"グリーンベイ","lon":-88.000014,"lat":44.529981,"pop":198611,"qid":"Q47430"},{"name":"Montgomery","name_ja":"モンゴメリー","lon":-86.279189,"lat":32.361602,"pop":198325,"qid":"Q29364"},{"name":"Roanoke","name_ja":"ロアノーク","lon":-79.941617,"lat":37.271199,"pop":198171,"qid":"Q501796"},{"name":"Manchester","name_ja":"マンチェスター","lon":-71.455287,"lat":42.995992,"pop":196566,"qid":"Q48370"},{"name":"Gainesville","name_ja":"ゲインズヴィル","lon":-82.325037,"lat":29.65138,"pop":191097,"qid":"Q487999"},{"name":"Ft. Myers","name_ja":"フォートマイヤーズ","lon":-81.860492,"lat":26.640298,"pop":188606,"qid":"Q506451"},{"name":"Kalamazoo","name_ja":"カラマズー","lon":-85.58719,"lat":42.292159,"pop":183381,"qid":"Q167155"},{"name":"Amarillo","name_ja":"アマリロ","lon":-101.829997,"lat":35.22998,"pop":181766,"qid":"Q51691"},{"name":"Santa Barbara","name_ja":"サンタ・バーバラ","lon":-119.716618,"lat":34.410799,"pop":181632,"qid":"Q159288"},{"name":"Brownsville","name_ja":"ブラウンズヴィル","lon":-97.500002,"lat":25.91998,"pop":181399,"qid":"Q51693"},{"name":"Savannah","name_ja":"サヴァンナ","lon":-81.109995,"lat":32.021106,"pop":180187,"qid":"Q83813"},{"name":"Erie","name_ja":"エリー","lon":-80.084993,"lat":42.129921,"pop":178182,"qid":"Q234061"},{"name":"Denton","name_ja":"デントン","lon":-97.128837,"lat":33.215762,"pop":176930,"qid":"Q128306"},{"name":"Wahiawa","name_ja":"ワヒアワ","lon":-158.023621,"lat":21.503092,"pop":174766,"qid":"Q2016119"},{"name":"Waterbury","name_ja":"ウォーターバリー","lon":-73.050022,"lat":41.550008,"pop":174236,"qid":"Q49178"},{"name":"Evansville","name_ja":"エヴァンズヴィル","lon":-87.555829,"lat":37.974696,"pop":174102,"qid":"Q486459"},{"name":"Peoria","name_ja":"ピオリア","lon":-89.57868,"lat":40.68944,"pop":172308,"qid":"Q233129"},{"name":"Poughkeepsie","name_ja":"ポケプシー市","lon":-73.921416,"lat":41.700231,"pop":170996,"qid":"Q178093"},{"name":"Cedar Rapids","name_ja":"シーダーラピッズ","lon":-91.660023,"lat":41.969982,"pop":170621,"qid":"Q486439"},{"name":"Waco","name_ja":"ウェーコ","lon":-97.146381,"lat":31.549171,"pop":167347,"qid":"Q128244"},{"name":"Rock Island","name_ja":"ロックアイランド","lon":-90.534614,"lat":41.493396,"pop":165728,"qid":"Q577878"},{"name":"Fargo","name_ja":"ファーゴ","lon":-96.789426,"lat":46.877228,"pop":162842,"qid":"Q34109"},{"name":"Wilmington","name_ja":"ウィルミントン","lon":-75.546898,"lat":39.746268,"pop":161560,"qid":"Q174224"},{"name":"Wilmington","name_ja":"ウィルミントン","lon":-77.94502,"lat":34.225519,"pop":161560,"qid":"Q659400"},{"name":"Wilkes-Barre","name_ja":"ウィルクスバリ","lon":-75.877937,"lat":41.249044,"pop":158913,"qid":"Q745594"},{"name":"Lafayette","name_ja":"ラファイエット","lon":-92.019949,"lat":30.199977,"pop":158214,"qid":"Q128891"},{"name":"Olympia","name_ja":"オリンピア","lon":-122.899434,"lat":47.038045,"pop":156984,"qid":"Q42735"},{"name":"Salinas","name_ja":"サリナス","lon":-121.641655,"lat":36.682217,"pop":156784,"qid":"Q488125"},{"name":"Scranton","name_ja":"スクラントン","lon":-75.662679,"lat":41.409293,"pop":156196,"qid":"Q271395"},{"name":"Sioux Falls","name_ja":"スーフォールズ","lon":-96.729998,"lat":43.549989,"pop":155724,"qid":"Q131335"},{"name":"Niagara Falls","name_ja":"ナイアガラフォールズ","lon":-79.036943,"lat":43.094823,"pop":153134,"qid":"Q128133"},{"name":"Fayetteville","name_ja":"フェイエットビル","lon":-94.157209,"lat":36.062978,"pop":151671,"qid":"Q219526"},{"name":"Paterson","name_ja":"パターソン","lon":-74.170005,"lat":40.919995,"pop":151205,"qid":"Q138391"},{"name":"National City","name_ja":"ナショナルシティ","lon":-117.098005,"lat":32.671945,"pop":150000,"qid":"Q430316"},{"name":"Edinburg","name_ja":"エディンバーグ","lon":-98.159962,"lat":26.303186,"pop":150000,"qid":"Q978246"},{"name":"Coral Gables","name_ja":"コーラル・ゲイブルス","lon":-80.291079,"lat":25.715419,"pop":150000,"qid":"Q427559"},{"name":"Schenectady","name_ja":"スケネクタディ","lon":-73.939968,"lat":42.814582,"pop":149255,"qid":"Q331380"},{"name":"Elkhart","name_ja":"エルクハート","lon":-85.968794,"lat":41.682945,"pop":149190,"qid":"Q2008706"},{"name":"Santa Cruz","name_ja":"サンタクルーズ","lon":-122.02639,"lat":36.971946,"pop":148444,"qid":"Q159232"},{"name":"Independence","name_ja":"インディペンデンス","lon":-94.415281,"lat":39.091114,"pop":148102,"qid":"Q24603"},{"name":"Bryan","name_ja":"ブライアン","lon":-96.369684,"lat":30.674186,"pop":146692,"qid":"Q695556"},{"name":"Vallejo","name_ja":"ヴァレーホ","lon":-122.258052,"lat":38.111949,"pop":146289,"qid":"Q208445"},{"name":"Pasadena","name_ja":"パサデナ","lon":-118.138872,"lat":34.160381,"pop":144618,"qid":"Q485176"},{"name":"Urbana","name_ja":"アーバナ","lon":-88.204188,"lat":40.109992,"pop":144074,"qid":"Q462184"},{"name":"Belleville","name_ja":"ベルヴィル","lon":-90.000228,"lat":38.525154,"pop":143900,"qid":"Q79892"},{"name":"Asheville","name_ja":"アシュビル","lon":-82.554145,"lat":35.601198,"pop":142755,"qid":"Q648501"},{"name":"Ocala","name_ja":"オカラ","lon":-82.140268,"lat":29.187351,"pop":141382,"qid":"Q918195"},{"name":"Binghamton","name_ja":"ビンガムトン","lon":-75.918322,"lat":42.099018,"pop":139895,"qid":"Q213814"},{"name":"Killeen","name_ja":"キリーン","lon":-97.727482,"lat":31.117285,"pop":137919,"qid":"Q128228"},{"name":"New Bedford","name_ja":"ニューベッドフォード","lon":-70.944698,"lat":41.656125,"pop":136082,"qid":"Q49147"},{"name":"Portland","name_ja":"ポートランド","lon":-70.245527,"lat":43.672162,"pop":135866,"qid":"Q49201"},{"name":"Springfield","name_ja":"スプリングフィールド","lon":-89.637126,"lat":39.788247,"pop":134715,"qid":"Q28515"},{"name":"Lafayette","name_ja":"ラファイエット","lon":-86.878248,"lat":40.417209,"pop":133977,"qid":"Q638187"},{"name":"Fredericksburg","name_ja":"フレデリックスバーグ","lon":-77.460786,"lat":38.303513,"pop":133134,"qid":"Q492342"},{"name":"Clarksville","name_ja":"クラークスビル","lon":-87.359433,"lat":36.530082,"pop":132536,"qid":"Q328941"},{"name":"Cape Coral","name_ja":"ケープコーラル","lon":-81.979684,"lat":26.60291,"pop":132489,"qid":"Q462789"},{"name":"Caldwell","name_ja":"コールドウェル","lon":-116.670538,"lat":43.660964,"pop":132476,"qid":"Q849592"},{"name":"Topeka","name_ja":"トピカ","lon":-95.669985,"lat":39.050005,"pop":132091,"qid":"Q41057"},{"name":"Racine","name_ja":"ラシーン","lon":-87.811834,"lat":42.727714,"pop":131654,"qid":"Q40340"},{"name":"Bloomington","name_ja":"ブルーミントン","lon":-88.993597,"lat":40.484595,"pop":128979,"qid":"Q577802"},{"name":"Alexandria","name_ja":"アレクサンドリア","lon":-77.055205,"lat":38.804338,"pop":127273,"qid":"Q88"},{"name":"Bremerton","name_ja":"ブレマートン","lon":-122.642017,"lat":47.573596,"pop":126820,"qid":"Q695417"},{"name":"Greeley","name_ja":"グリーリー","lon":-104.739974,"lat":40.419198,"pop":125410,"qid":"Q94274"},{"name":"Monterey","name_ja":"モントレー","lon":-121.893578,"lat":36.600258,"pop":124288,"qid":"Q487315"},{"name":"Spartanburg","name_ja":"スパータンバーグ","lon":-81.932271,"lat":34.949429,"pop":124126,"qid":"Q773325"},{"name":"Charleston","name_ja":"チャールストン","lon":-81.632728,"lat":38.349738,"pop":123799,"qid":"Q44564"},{"name":"Boulder","name_ja":"ボルダー","lon":-105.244542,"lat":40.008137,"pop":122274,"qid":"Q192517"},{"name":"Visalia","name_ja":"ヴァイセイリア","lon":-119.316009,"lat":36.325029,"pop":121968,"qid":"Q495373"},{"name":"Saginaw","name_ja":"サギノー","lon":-83.950829,"lat":43.41948,"pop":121379,"qid":"Q719"},{"name":"Tuscaloosa","name_ja":"タスカルーサ","lon":-87.544176,"lat":33.225115,"pop":121373,"qid":"Q79580"},{"name":"Southaven","name_ja":"サウスヘイブン","lon":-90.003457,"lat":34.968911,"pop":121268,"qid":"Q768007"},{"name":"New Albany","name_ja":"ニューオールバニー","lon":-85.821284,"lat":38.310877,"pop":120625,"qid":"Q1762878"},{"name":"Beaver Falls","name_ja":"ビーバーフォールズ","lon":-80.319423,"lat":40.751943,"pop":120125,"qid":"Q1130843"},{"name":"Petersburg","name_ja":"ピーターズバーグ","lon":-77.402237,"lat":37.227765,"pop":118577,"qid":"Q511964"},{"name":"Yuba City","name_ja":"ユバシティ","lon":-121.615766,"lat":39.141033,"pop":116217,"qid":"Q169948"},{"name":"Columbia","name_ja":"コロンビア","lon":-87.035267,"lat":35.614995,"pop":116091,"qid":"Q5675279"},{"name":"Murfreesboro","name_ja":"マーフリーズボロ","lon":-86.390267,"lat":35.845963,"pop":115774,"qid":"Q501766"},{"name":"Macon","name_ja":"メイコン","lon":-83.630048,"lat":32.850384,"pop":115592,"qid":"Q219656"},{"name":"Las Cruces","name_ja":"ラスクルーセス","lon":-106.777808,"lat":32.312613,"pop":115167,"qid":"Q33264"},{"name":"Spring Hill","name_ja":"スプリングヒル","lon":-82.547711,"lat":28.478945,"pop":114697,"qid":"Q2321558"},{"name":"Abilene","name_ja":"アビリーン","lon":-99.732786,"lat":32.448625,"pop":114247,"qid":"Q128295"},{"name":"Norman","name_ja":"ノーマン","lon":-97.441991,"lat":35.22047,"pop":113525,"qid":"Q40347"},{"name":"St. Cloud","name_ja":"セントクラウド","lon":-94.162222,"lat":45.56121,"pop":112794,"qid":"Q736834"},{"name":"Tyler","name_ja":"タイラー","lon":-95.300783,"lat":32.351086,"pop":112245,"qid":"Q499169"},{"name":"Pueblo","name_ja":"プエブロ","lon":-104.630007,"lat":38.280388,"pop":112195,"qid":"Q675576"},{"name":"Beaumont","name_ja":"ボーモント","lon":-94.101683,"lat":30.086263,"pop":111485,"qid":"Q128282"},{"name":"Santa Maria","name_ja":"サンタ・マリア","lon":-120.436639,"lat":34.940127,"pop":110705,"qid":"Q643953"},{"name":"Harlingen","name_ja":"ハーリンジェン","lon":-97.690198,"lat":26.19756,"pop":110339,"qid":"Q868869"},{"name":"Athens","name_ja":"アセンズ","lon":-83.378022,"lat":33.961298,"pop":110301,"qid":"Q203263"},{"name":"Winter Haven","name_ja":"ウィンターヘイブン","lon":-81.733006,"lat":28.021919,"pop":108932,"qid":"Q1778769"},{"name":"Medford","name_ja":"メドフォード","lon":-122.874423,"lat":42.326627,"pop":108525,"qid":"Q836663"},{"name":"Rochester","name_ja":"ロチェスター","lon":-92.469689,"lat":44.022053,"pop":108511,"qid":"Q486479"},{"name":"Odessa","name_ja":"オデッサ","lon":-102.367225,"lat":31.845561,"pop":106054,"qid":"Q128361"},{"name":"Utica","name_ja":"ユーティカ","lon":-75.233067,"lat":43.101179,"pop":105150,"qid":"Q2495519"},{"name":"Billings","name_ja":"ビリングス","lon":-108.54,"lat":45.788302,"pop":104552,"qid":"Q166304"},{"name":"Grand Junction","name_ja":"グランド・ジャンクション","lon":-108.55,"lat":39.093853,"pop":104214,"qid":"Q989903"},{"name":"Lynchburg","name_ja":"リンチバーグ","lon":-79.142467,"lat":37.413619,"pop":103893,"qid":"Q844012"},{"name":"Kennewick","name_ja":"ケニウィック","lon":-119.136098,"lat":46.211377,"pop":102504,"qid":"Q844033"},{"name":"Council Bluffs","name_ja":"カウンシル・ブラフス","lon":-95.8608,"lat":41.262273,"pop":101805,"qid":"Q695565"},{"name":"Monroe","name_ja":"モンロー","lon":-92.119194,"lat":32.509603,"pop":101724,"qid":"Q947115"},{"name":"Wichita Falls","name_ja":"ウィチタフォールズ","lon":-98.493069,"lat":33.913626,"pop":101212,"qid":"Q128349"},{"name":"Muskegon","name_ja":"マスケゴン","lon":-86.248364,"lat":43.234582,"pop":101177,"qid":"Q952097"},{"name":"Bloomington","name_ja":"ブルーミントン","lon":-86.526409,"lat":39.165657,"pop":100310,"qid":"Q490385"},{"name":"Panama City","name_ja":"パナマシティ","lon":-85.655273,"lat":30.15861,"pop":100072,"qid":"Q852591"},{"name":"Bellingham","name_ja":"ベリンハム","lon":-122.486927,"lat":48.760136,"pop":99662,"qid":"Q430267"},{"name":"Yakima","name_ja":"ヤキマ","lon":-120.504696,"lat":46.602232,"pop":99287,"qid":"Q499203"},{"name":"St. George","name_ja":"セントジョージ","lon":-113.583336,"lat":37.104155,"pop":98638,"qid":"Q52472"},{"name":"Iowa City","name_ja":"アイオワシティ","lon":-91.529979,"lat":41.661086,"pop":98516,"qid":"Q487977"},{"name":"Midland","name_ja":"ミッドランド","lon":-102.0975,"lat":32.030718,"pop":98501,"qid":"Q128321"},{"name":"Waterloo","name_ja":"ウォータールー","lon":-92.342798,"lat":42.493154,"pop":98347,"qid":"Q496381"},{"name":"New London","name_ja":"ニューロンドン","lon":-72.100028,"lat":41.355523,"pop":96178,"qid":"Q49146"},{"name":"Merced","name_ja":"マーセド","lon":-120.481933,"lat":37.302618,"pop":96091,"qid":"Q499189"},{"name":"Redding","name_ja":"レディング","lon":-122.390576,"lat":40.587043,"pop":96058,"qid":"Q495361"},{"name":"Chico","name_ja":"チコ","lon":-121.836398,"lat":39.72862,"pop":95888,"qid":"Q432152"},{"name":"Rock Hill","name_ja":"ロックヒル","lon":-81.03,"lat":34.940385,"pop":94564,"qid":"Q960774"},{"name":"Fort Smith","name_ja":"フォートスミス","lon":-94.398357,"lat":35.386224,"pop":93988,"qid":"Q79535"},{"name":"Burlington","name_ja":"バーリントン","lon":-73.212467,"lat":44.475798,"pop":93807,"qid":"Q31058"},{"name":"Lawrence","name_ja":"ローレンス","lon":-95.25523,"lat":38.959752,"pop":92726,"qid":"Q493840"},{"name":"Santa Fe","name_ja":"サンタフェ","lon":-105.937239,"lat":35.686929,"pop":92681,"qid":"Q38555"},{"name":"Greenville","name_ja":"グリーンビル","lon":-77.366684,"lat":35.612877,"pop":92565,"qid":"Q1989904"},{"name":"Yuma","name_ja":"ユマ","lon":-114.623608,"lat":32.685277,"pop":92489,"qid":"Q79820"},{"name":"Lawton","name_ja":"ロートン","lon":-98.409973,"lat":34.599037,"pop":91752,"qid":"Q503336"},{"name":"Sioux City","name_ja":"スー・シティ","lon":-96.399992,"lat":42.500389,"pop":90932,"qid":"Q489255"},{"name":"Hickory","name_ja":"ヒッコリー","lon":-81.341402,"lat":35.733489,"pop":89462,"qid":"Q2028564"},{"name":"Albany","name_ja":"オールバニ","lon":-84.15583,"lat":31.57873,"pop":88766,"qid":"Q285599"},{"name":"San Angelo","name_ja":"サンアンジェロ","lon":-100.436697,"lat":31.464008,"pop":88256,"qid":"Q925598"},{"name":"State College","name_ja":"ステートカレッジ","lon":-77.860245,"lat":40.793723,"pop":87926,"qid":"Q1187041"},{"name":"Charlottesville","name_ja":"シャーロッツヴィル","lon":-78.476926,"lat":38.029189,"pop":87925,"qid":"Q123766"},{"name":"La Crosse","name_ja":"ラクロス","lon":-91.239429,"lat":43.801369,"pop":87381,"qid":"Q936780"},{"name":"Vero Beach","name_ja":"ベロビーチ","lon":-80.391124,"lat":27.642252,"pop":86039,"qid":"Q969026"},{"name":"Baytown","name_ja":"ベイタウン","lon":-94.967728,"lat":29.755844,"pop":86034,"qid":"Q812646"},{"name":"Homestead","name_ja":"ホームステッド","lon":-80.477786,"lat":25.468302,"pop":85967,"qid":"Q280557"},{"name":"Muncie","name_ja":"マンシー","lon":-85.386375,"lat":40.19376,"pop":85449,"qid":"Q932981"},{"name":"Huntington","name_ja":"ハンティントン","lon":-82.445288,"lat":38.419579,"pop":85396,"qid":"Q241808"},{"name":"Duluth","name_ja":"ダルース","lon":-92.106378,"lat":46.783332,"pop":84800,"qid":"Q485708"},{"name":"Springfield","name_ja":"スプリングフィールド","lon":-83.799986,"lat":39.920004,"pop":84576,"qid":"Q40325"},{"name":"Alton","name_ja":"アルトン","lon":-90.184222,"lat":38.890997,"pop":84276,"qid":"Q443852"},{"name":"Slidell","name_ja":"スライデル","lon":-89.781094,"lat":30.27496,"pop":84239,"qid":"Q988156"},{"name":"Lake Charles","name_ja":"レイクチャールズ","lon":-93.217189,"lat":30.226384,"pop":83821,"qid":"Q864106"},{"name":"Sault Ste. Marie","name_ja":"スーセントマリー","lon":-84.345276,"lat":46.495261,"pop":83805,"qid":"Q986634"},{"name":"Victorville","name_ja":"ヴィクターヴィル","lon":-117.290319,"lat":34.536508,"pop":83496,"qid":"Q495353"},{"name":"Gulfport","name_ja":"ガルフポート","lon":-89.092764,"lat":30.367564,"pop":82165,"qid":"Q490587"},{"name":"Annapolis","name_ja":"アナポリス","lon":-76.492499,"lat":38.97833,"pop":81300,"qid":"Q28271"},{"name":"Eau Claire","name_ja":"オークレア","lon":-91.498353,"lat":44.811359,"pop":79740,"qid":"Q122563"},{"name":"Hagerstown","name_ja":"ヘイガーズタウン","lon":-77.72028,"lat":39.641649,"pop":79662,"qid":"Q755559"},{"name":"Idaho Falls","name_ja":"アイダホフォールズ","lon":-112.033301,"lat":43.466687,"pop":79399,"qid":"Q496360"},{"name":"Altoona","name_ja":"アルトゥーナ","lon":-78.394967,"lat":40.518598,"pop":78607,"qid":"Q444210"},{"name":"St. Joseph","name_ja":"セイント・ジョーゼフ","lon":-94.846392,"lat":39.769031,"pop":78012,"qid":"Q745120"},{"name":"Decatur","name_ja":"ディケーター","lon":-88.954736,"lat":39.840706,"pop":77868,"qid":"Q506325"},{"name":"Mansfield","name_ja":"マンスフィールド","lon":-82.515542,"lat":40.758325,"pop":77768,"qid":"Q983698"},{"name":"Johnson City","name_ja":"ジョンソンシティ","lon":-82.353614,"lat":36.313325,"pop":77538,"qid":"Q770571"},{"name":"Jacksonville","name_ja":"ジャクソンビル","lon":-77.430556,"lat":34.754324,"pop":77288,"qid":"Q986369"},{"name":"Atlantic City","name_ja":"アトランティックシティ","lon":-74.423323,"lat":39.364637,"pop":76573,"qid":"Q139564"},{"name":"Alexandria","name_ja":"アレクサンドリア","lon":-92.445014,"lat":31.311098,"pop":76565,"qid":"Q985351"},{"name":"St. Augustine","name_ja":"セントオーガスティン","lon":-81.314711,"lat":29.894879,"pop":76331,"qid":"Q487988"},{"name":"Dover","name_ja":"ドーヴァー","lon":-75.524703,"lat":39.158087,"pop":76039,"qid":"Q33518"},{"name":"Longview","name_ja":"ロングビュー","lon":-94.740274,"lat":32.500534,"pop":75920,"qid":"Q852645"},{"name":"Bend","name_ja":"ベンド","lon":-121.308603,"lat":44.053929,"pop":75441,"qid":"Q671288"},{"name":"Wausau","name_ja":"ウォーソー","lon":-89.629992,"lat":44.959154,"pop":75422,"qid":"Q998675"},{"name":"Freeport","name_ja":"フリーポート","lon":-95.356877,"lat":28.959484,"pop":74892,"qid":"Q959375"},{"name":"Texarkana","name_ja":"テクサーカナ","lon":-94.037475,"lat":33.442105,"pop":74414,"qid":"Q79438"},{"name":"Auburn","name_ja":"オーバーン","lon":-85.48084,"lat":32.609701,"pop":73929,"qid":"Q79728"},{"name":"Joplin","name_ja":"ジョプリン","lon":-94.513079,"lat":37.084596,"pop":73763,"qid":"Q317865"},{"name":"Rapid City","name_ja":"ラピッドシティ","lon":-103.230557,"lat":44.080551,"pop":73632,"qid":"Q213325"},{"name":"Terre Haute","name_ja":"テレ・ホート","lon":-87.413874,"lat":39.466647,"pop":73236,"qid":"Q492478"},{"name":"Cheyenne","name_ja":"シャイアン","lon":-104.819711,"lat":41.140007,"pop":72927,"qid":"Q39042"},{"name":"Missoula","name_ja":"ミズーラ","lon":-113.993053,"lat":46.872241,"pop":72856,"qid":"Q189602"},{"name":"Oshkosh","name_ja":"オシュコシュ","lon":-88.542513,"lat":44.025102,"pop":72698,"qid":"Q936741"},{"name":"Logan","name_ja":"ローガン","lon":-111.833598,"lat":41.73594,"pop":72490,"qid":"Q482657"},{"name":"Bowling Green","name_ja":"ボーリング・グリーン","lon":-86.443649,"lat":36.990699,"pop":71140,"qid":"Q694545"},{"name":"Battle Creek","name_ja":"バトルクリーク","lon":-85.179747,"lat":42.321098,"pop":70820,"qid":"Q810998"},{"name":"San Marcos","name_ja":"サンマルコス","lon":-97.941113,"lat":29.883071,"pop":70371,"qid":"Q982353"},{"name":"Texas City","name_ja":"テキサスシティ","lon":-94.962767,"lat":29.410878,"pop":69914,"qid":"Q912475"},{"name":"Kankakee","name_ja":"カンカキー","lon":-87.861108,"lat":41.12037,"pop":69608,"qid":"Q578351"},{"name":"Johnstown","name_ja":"ジョンズタウン","lon":-78.922222,"lat":40.327085,"pop":69286,"qid":"Q1070763"},{"name":"Janesville","name_ja":"ジェーンズヴィル","lon":-89.021579,"lat":42.682626,"pop":69278,"qid":"Q257536"},{"name":"St. Charles","name_ja":"セントチャールズ","lon":-76.938932,"lat":38.603056,"pop":69208,"qid":"Q755927"},{"name":"Galveston","name_ja":"ガルヴェストン","lon":-94.79748,"lat":29.301143,"pop":68612,"qid":"Q135744"},{"name":"Bay City","name_ja":"ベイシティ","lon":-83.888895,"lat":43.594457,"pop":68549,"qid":"Q746820"},{"name":"Lima","name_ja":"ライマ","lon":-84.105265,"lat":40.742874,"pop":68364,"qid":"Q983974"},{"name":"Pontiac","name_ja":"ポンティアック","lon":-83.290224,"lat":42.651853,"pop":67994,"qid":"Q847596"},{"name":"Owensboro","name_ja":"オーエンズボロ","lon":-87.113324,"lat":37.774579,"pop":67825,"qid":"Q494295"},{"name":"Blacksburg","name_ja":"ブラックスバーグ","lon":-80.414198,"lat":37.229419,"pop":67508,"qid":"Q285816"},{"name":"Great Falls","name_ja":"グレートフォールズ","lon":-111.299987,"lat":47.50029,"pop":66558,"qid":"Q466190"},{"name":"Longview","name_ja":"ロングビュー","lon":-122.936951,"lat":46.13872,"pop":66231,"qid":"Q983801"},{"name":"San Luis Obispo","name_ja":"サン・ルイス・オビスポ","lon":-120.658589,"lat":35.283181,"pop":65386,"qid":"Q49012"},{"name":"Houma","name_ja":"ホーマ","lon":-90.719486,"lat":29.595931,"pop":64592,"qid":"Q388503"},{"name":"Port Charlotte","name_ja":"ポートシャーロット","lon":-82.105697,"lat":27.000043,"pop":64279,"qid":"Q1022776"},{"name":"Victoria","name_ja":"ビクトリア","lon":-97.00334,"lat":28.804998,"pop":64209,"qid":"Q784496"},{"name":"Pocatello","name_ja":"ポカテッロ","lon":-112.444723,"lat":42.871348,"pop":63998,"qid":"Q320729"},{"name":"Flagstaff","name_ja":"フラッグスタッフ","lon":-111.650508,"lat":35.198096,"pop":63993,"qid":"Q79842"},{"name":"Bismarck","name_ja":"ビスマーク","lon":-100.783316,"lat":46.808317,"pop":63871,"qid":"Q37066"},{"name":"Jackson","name_ja":"ジャクソン","lon":-88.813892,"lat":35.614866,"pop":63196,"qid":"Q985409"},{"name":"Wenatchee","name_ja":"ワナッチー","lon":-120.309024,"lat":47.423629,"pop":62625,"qid":"Q958596"},{"name":"Dubuque","name_ja":"ダビューク","lon":-90.664451,"lat":42.500932,"pop":62483,"qid":"Q493794"},{"name":"Elmira","name_ja":"エルマイラ","lon":-76.808036,"lat":42.09013,"pop":62376,"qid":"Q934135"},{"name":"Conway","name_ja":"コンウェイ","lon":-92.451318,"lat":35.091281,"pop":61995,"qid":"Q79853"},{"name":"Parkersburg","name_ja":"パーカーズバーグ","lon":-81.561647,"lat":39.266659,"pop":61935,"qid":"Q329485"},{"name":"Dothan","name_ja":"ドーサン","lon":-85.390587,"lat":31.223455,"pop":61741,"qid":"Q79519"},{"name":"Anderson","name_ja":"アンダーソン","lon":-82.650263,"lat":34.503745,"pop":61558,"qid":"Q1150893"},{"name":"Marietta","name_ja":"マリエッタ","lon":-84.543248,"lat":33.955613,"pop":61360,"qid":"Q852684"},{"name":"Valdosta","name_ja":"バルドスタ","lon":-83.278597,"lat":30.832858,"pop":61179,"qid":"Q1010240"},{"name":"Temple","name_ja":"テンプル","lon":-97.363008,"lat":31.102093,"pop":61161,"qid":"Q427075"},{"name":"Kokomo","name_ja":"コーコモー","lon":-86.133642,"lat":40.486765,"pop":61121,"qid":"Q913209"},{"name":"Casper","name_ja":"キャスパー","lon":-106.323243,"lat":42.846872,"pop":60791,"qid":"Q223177"},{"name":"Ithaca","name_ja":"イサカ","lon":-76.496943,"lat":42.440573,"pop":59930,"qid":"Q217346"},{"name":"Corvallis","name_ja":"コーバリス","lon":-123.279979,"lat":44.572356,"pop":59030,"qid":"Q748474"},{"name":"Hattiesburg","name_ja":"ハッティズバーグ","lon":-89.290245,"lat":31.327273,"pop":58874,"qid":"Q384464"},{"name":"Morgantown","name_ja":"モーガンタウン","lon":-79.95606,"lat":39.629815,"pop":58808,"qid":"Q653636"},{"name":"Jonesboro","name_ja":"ジョーンズボロ","lon":-90.704164,"lat":35.842578,"pop":58619,"qid":"Q61455"},{"name":"Grand Forks","name_ja":"グランド・フォークス","lon":-97.032486,"lat":47.925277,"pop":58566,"qid":"Q34144"},{"name":"Dalton","name_ja":"ダルトン","lon":-84.970302,"lat":34.769724,"pop":58557,"qid":"Q996830"},{"name":"Benton Harbor","name_ja":"ベントン・ハーバー","lon":-86.454191,"lat":42.11664,"pop":58382,"qid":"Q818338"},{"name":"Rocky Mount","name_ja":"ロッキー・マウント","lon":-77.790766,"lat":35.937999,"pop":58361,"qid":"Q1021026"},{"name":"Lewiston","name_ja":"ルイストン","lon":-70.21526,"lat":44.100705,"pop":57688,"qid":"Q501170"},{"name":"Kingsport","name_ja":"キングスポート","lon":-82.561948,"lat":36.548323,"pop":57467,"qid":"Q241814"},{"name":"Florence","name_ja":"フローレンス","lon":-79.762791,"lat":34.195676,"pop":57438,"qid":"Q597842"},{"name":"Carson City","name_ja":"カーソンシティ","lon":-119.766395,"lat":39.163849,"pop":57341,"qid":"Q40881"},{"name":"Ames","name_ja":"エイムズ","lon":-93.623091,"lat":42.018668,"pop":57104,"qid":"Q470273"},{"name":"Fairbanks","name_ja":"フェアバンクス","lon":-147.710659,"lat":64.836984,"pop":56993,"qid":"Q79638"},{"name":"Manhattan","name_ja":"マンハッタン","lon":-96.592435,"lat":39.194027,"pop":56949,"qid":"Q856841"},{"name":"Port Arthur","name_ja":"ポートアーサー","lon":-93.928593,"lat":29.898988,"pop":56945,"qid":"Q45400"},{"name":"Williamsport","name_ja":"ウィリアムズポート","lon":-77.001383,"lat":41.241086,"pop":56877,"qid":"Q1016159"}]