[{"name":"Harare","name_ja":"ハラレ","lon":31.042764,"lat":-17.815844,"pop":1572000},{"name":"Bulawayo","name_ja":"ブラワヨ","lon":28.580002,"lat":-20.169998,"pop":699385},{"name":"Chitungwiza","name_ja":"チトゥンギザ","lon":31.100003,"lat":-18.000001,"pop":340360},{"name":"Mutare","name_ja":"ムタレ","lon":32.650038,"lat":-18.970019,"pop":249365},{"name":"Gweru","name_ja":"グウェル","lon":29.82003,"lat":-19.450042,"pop":183358},{"name":"Kwekwe","name_ja":"クウェクウェ","lon":29.799979,"lat":-18.929608,"pop":99149},{"name":"Kadoma","name_ja":"カドマ","lon":29.909947,"lat":-18.330006,"pop":79174},{"name":"Masvingo","name_ja":"マシンゴ","lon":30.82002,"lat":-20.059617,"pop":76311},{"name":"Chinhoyi","name_ja":"チノイ","lon":30.180008,"lat":-17.359626,"pop":61739},{"name":"Zvishavane","name_ja":"ズビシャバネ","lon":30.04999,"lat":-20.329574,"pop":35896},{"name":"Victoria Falls","name_ja":"ビクトリア・フォールズ","lon":25.840014,"lat":-17.929617,"pop":35761},{"name":"Hwange","name_ja":"ワンゲ","lon":26.500026,"lat":-18.370004,"pop":33989},{"name":"Chiredzi","name_ja":"チレドジ","lon":31.660021,"lat":-21.049582,"pop":28205},{"name":"Beitbridge","name_ja":"ベイトブリッジ","lon":29.989993,"lat":-22.209615,"pop":26459},{"name":"Kariba","name_ja":"カリバ","lon":28.80004,"lat":-16.5296,"pop":25531},{"name":"Karoi","name_ja":"カロイ","lon":29.679986,"lat":-16.819556,"pop":25030},{"name":"Gwanda","name_ja":"グワンダ","lon":29.010002,"lat":-20.939615,"pop":14450},{"name":"Shamva","name_ja":"シャンバ","lon":31.57,"lat":-17.319629,"pop":10317},{"name":"Mazowe","name_ja":"マゾウェ","lon":30.970037,"lat":-17.519617,"pop":9966},{"name":"Plumtree","name_ja":"プラムツリー","lon":27.819997,"lat":-20.479539,"pop":2148}]